,country3,region,subregion,place_name,station_name,notes,type,icao,lat,lon,elev
0,USA,-,-,Buoy,Hotel,,,KC7H,38.5,-70.7,
1,USA,-,-,Buoy - Moored Centr,Buoy - Moored Centr,,,KQ51,26.017,-87.75,
2,USA,-,-,Pacific Ocean,Ship 4YP,This station was active mainly in the 1970s and 1980s.,,K4YP,50.0,-145.0,
3,USA,-,-,Pacific Ocean,Ship 4YT,This station was active mainly in the 1970s and 1980s.,,K4YT,29.0,135.0,
4,USA,-,-,Wake Island,Wake Island AP,,,PAWK,19.28249028,166.6366611,7.0
5,USA,AK,Aleutians West Census Area,Adak,AP | NAS Adak | Adak AAF | Davis AFB | Mitchell Field,,,PADK,51.883583,-176.642481,5.8
6,USA,AK,Kodiak Island Borough,Akhiok,Akhiok AP,,,PAKH,56.938692,-154.182556,13.4
7,USA,AK,Bethel Census Area,Akiachak,Akiachak,,,KKKI,60.90786472,-161.4350772,5.5
8,USA,AK,Bethel Census Area,Akiachak,Akiachak,,,KZ13,60.90483333,-161.4224444,6.7
9,USA,AK,Bethel Census Area,Akiak,Akiak AP,,,PFAK,60.902897,-161.230583,11.9
10,USA,AK,Aleutians East Borough,Akutan,Akutan,,,KKQA,54.13246694,-165.7853111,0.0
11,USA,AK,-,Akutan,Akutan,ADD/20161013,,PAUT,54.144611,-165.604108,10.0
12,USA,AK,Wade Hampton Census Area,Alakanuk,Alakanuk AP,,,PAUK,62.683056,-164.722194,6.4
13,USA,AK,Dillingham Census Area,Aleknagik,Tripod,,,KZ25,59.26314583,-158.5577553,68.6
14,USA,AK,Dillingham Census Area,Aleknagik,Aleknagik,,,KZ33,59.27397806,-158.6235892,2.1
15,USA,AK,Dillingham Census Area,Aleknagik|Mosquito Point,Aleknagik New AP,,,K5A8,59.28256167,-158.6176725,19.2
16,USA,AK,Yukon-Koyukuk Census Area,Allakaket|New Allakaket,Allakaket AP,,,PFAL,66.551833,-152.622167,134.4
18,USA,AK,Northwest Arctic Borough,Ambler,Ambler,,,PAFM,67.1062,-157.857156,89.3
19,USA,AK,Aleutians West Census Area,Amchitka Island,Amchitka Island,Possible old FAA identifier of PNI but this conflicts with Pohnpei WSO Micronesia.,,PAHT,51.3833,179.2667,71.9
20,USA,AK,North Slope Borough,Anaktuvuk Pass|Anatuvuk Pass,Anaktuvuk Pass AP,,,PAKP,68.133611,-151.743333,641.9
21,USA,AK,,Anchorage,FAA Alaskan Regional Office - Message Center,,,KRAN,,,
22,USA,AK,Anchorage Municipality,Anchorage|Airport Heights,Alaska Rgnl Hospital,,,K2OK,61.21188889,-149.8273694,41.8
23,USA,AK,Anchorage Municipality,Anchorage|Artesian Village,ARTCC,,,PAZA,61.2297,-149.7809,51.0
24,USA,AK,Anchorage Municipality,Anchorage|Bonibrook,Campbell Airstrip,,,KCSR,61.1587,-149.7806111,87.2
25,USA,AK,Anchorage Municipality,Anchorage|Campbell,Campbell Lake Spb,,,K3C3,61.13306111,-149.9419,6.1
26,USA,AK,Matanuska-Susitna Borough,Anchorage|Knik River,Bold,,,KA13,61.34133889,-148.9988806,274.3
27,USA,AK,Anchorage Municipality,Anchorage|Lindale,Merrill Field,,,PAMR,61.213544,-149.844725,41.8
28,USA,AK,Anchorage Municipality,Anchorage|Turnagain Heights,Lake Hood,,,PALH,61.18,-149.9719444,24.1
29,USA,AK,Anchorage Municipality,Anchorage|Turnagain Heights,Ted Stevens Anchorage International AP,,,PANC,61.174156,-149.998189,46.0
30,USA,AK,Anchorage Municipality,Anchorage|Wilson Village,Elmendorf AFB|Elmendorf Field,,,PAED,61.251353,-149.806528,64.9
31,USA,AK,Hoonah-Angoon Census Area,Angoon,Seaplane Base,,,PAGN,57.5,-134.5833333,0.0
32,USA,AK,Bethel Census Area,Aniak,Aniak AP | Aniak Intermediate Field (formerly),,,PANI,61.581597,-159.543042,29.6
33,USA,AK,Annette Island Reserve,Annette,Tamgas Harbor,,,KZ43,55.06799222,-131.5569547,0.0
34,USA,AK,Annette Island Reserve,Annette Island,Annette Island AP | Annette Island Intermediate Field (formerly),,,PANT,55.0425,-131.5722222,36.3
35,USA,AK,Yukon-Koyukuk Census Area,Anvik,Anvik,,,KK40,62.65622389,-160.2054486,15.8
36,USA,AK,Yukon-Koyukuk Census Area,Anvik,Anvik AP,,,PANV,62.647333,-160.190056,90.5
37,USA,AK,Yukon-Koyukuk Census Area,Arctic Village,Arctic Village AP,,,PARC,68.114669,-145.579417,637.6
38,USA,AK,Aleutians West Census Area,Atka,Atka,,,PAAK,52.220583,-174.206194,16.8
39,USA,AK,Bethel Census Area,Atmautluak,Atmautluak,,,K4A2,60.86674556,-162.2731389,5.8
40,USA,AK,North Slope Borough,Atqasuk,Edward Burnell Sr Memorial AP,,,PATQ,70.467111,-157.435667,30.8
41,USA,AK,Aleutians West Census Area,Attu|Navy Town,Casco Cove CGS AP,,,PAAT,52.83254167,173.1755542,26.8
42,USA,AK,-,Badami,Badami,ADD/20161013,,PABP,70.137467,-147.030439,58.0
44,USA,AK,North Slope Borough,Barrow|Browerville,Wiley Post-Will Rogers Memorial AP,,,PABR,71.284861,-156.768583,14.6
45,USA,AK,North Slope Borough,Barter Island|Kaktovik,DEW Station,,,PABA,70.113111,-143.653611,16.8
46,USA,AK,Hoonah-Angoon Census Area,Bartlett Cove,Bartlett Cove,,,KBQV,58.45520778,-135.88517,0.0
47,USA,AK,Nome Census Area,Basin Creek|Summit,Basin Creek,,,KZ47,64.67979472,-165.2998369,43.6
48,USA,AK,Yukon-Koyukuk Census Area,Bear Creek|Folger,Bear Creek 3,,,KZ48,63.57160917,-156.1440506,225.6
49,USA,AK,Aleutians East Borough,Bear Lake|Port Moller,Johnsons Landing,,,KZ52,56.03668556,-160.2662053,39.6
50,USA,AK,Yukon-Koyukuk Census Area,Beaver,Beaver AP,,,PAWB,66.362222,-147.4065,110.9
51,USA,AK,Kenai Peninsula Borough,Beluga,Private,,,PABG,61.172961,-151.045417,26.5
52,USA,AK,Bethel Census Area,Bethel,Bethel,,,KZ59,60.78202528,-161.7431289,4.6
53,USA,AK,Bethel Census Area,Bethel,Bethel AP | Bethel Intermediate Field (formerly),,,PABE,60.778556,-161.837167,39.0
54,USA,AK,Yukon-Koyukuk Census Area,Bettles,Vor Lake Waterlane,,,K2A4,66.89925278,-151.4715528,197.5
55,USA,AK,Yukon-Koyukuk Census Area,Bettles,Field,,,PABT,66.913944,-151.529056,197.2
56,USA,AK,Matanuska-Susitna Borough,Big Lake,Jones Landing,,,KL95,61.55477222,-149.9393361,54.9
57,USA,AK,Matanuska-Susitna Borough,Big Lake|Houston,Beaver Lake,,,KD71,61.58293,-149.831,45.7
58,USA,AK,Matanuska-Susitna Borough,Big Lake|Knik,Brocker Lake,,,K6A7,61.48183889,-149.7732444,30.5
59,USA,AK,Matanuska-Susitna Borough,Big Lake|Knik,Big Lake,,,KBGQ,61.53612222,-149.8138972,49.4
60,USA,AK,Matanuska-Susitna Borough,Big Lake|Knik,Big Lake AP|Big Lake No. 2,,,PAGQ,61.534683,-149.812544,49.4
61,USA,AK,Lake and Peninsula Borough,Big Mountain|Napaimute (historical),Big Mountain AP,,,PABM,59.361247,-155.258822,197.0
62,USA,AK,Sitka City and Borough,Biorka Island|Goddard,SAWRS,,,PAJB,56.85,-135.5333,39.0
63,USA,AK,Yukon-Koyukuk Census Area,Birch Creek,Birch Creek,,,KZ91,66.27592778,-145.81805,133.8
64,USA,AK,Anchorage Municipality,Birchwood,Chugiak,,,PABV,61.416089,-149.508306,25.3
65,USA,AK,Southeast Fairbanks Census Area,Black Rapids|Donnelly,Black Rapids,,,K5BK,63.53514639,-145.8608861,647.7
66,USA,AK,Fairbanks North Star Borough,Blair Lakes Bomb Range|Badger,Blair Lakes Bomb Range,,,PAIP,64.382,-147.7,210.0
67,USA,AK,Nome Census Area,Brevig Mission,Brevig Mission AP,,,PFKT,65.331333,-166.465722,11.6
68,USA,AK,Northwest Arctic Borough,Buckland,Buckland,,,PABL,65.981556,-161.149139,8.8
69,USA,AK,-,Bullen Point Air Force Stat,Bullen,ADD/20161013,,PABU,70.172778,-146.836111,23.0
70,USA,AK,Denali Borough,Cantwell,Cantwell,,,PATW,63.391206,-148.955617,667.5
71,USA,AK,Valdez-Cordova Census Area,Cape Hinchinbrook|Nuchek (historical),Johnstone Point AP,,,PAJO,60.4833,-146.6,8.0
72,USA,AK,North Slope Borough,Cape Lisburne|Wevok,Cape Lisburne,,,PALU,68.875133,-166.111106,4.3
73,USA,AK,Bethel Census Area,Cape Newenham|Kinegnak,Cape Newenham AFS,,,PAEH,58.64815,-162.062969,161.9
74,USA,AK,Wade Hampton Census Area,Cape Romanzoff|Scammon Bay,Cape Romanzoff AP|AFS,,,PACZ,61.781014,-166.039575,142.3
75,USA,AK,Aleutians East Borough,Cape Sarichef|Nosovskoi (historical),Cape Sarichef AP,,,PACS,54.582431,-164.914481,54.0
76,USA,AK,Hoonah-Angoon Census Area,Cape Spencer|Elfin Cove,Cape Spencer,,,PACA,58.19906861,-136.6388106,25.6
77,USA,AK,Yukon-Koyukuk Census Area,Central,Central,,,PACE,65.573944,-144.780889,285.6
78,USA,AK,Yukon-Koyukuk Census Area,Central,Central,,,PARL,65.57394444,-144.7808889,285.3
79,USA,AK,Yukon-Koyukuk Census Area,Chalkyitsik,Chalkyitsik,,,KCIK,66.64502222,-143.7399303,167.0
80,USA,AK,Yukon-Koyukuk Census Area,Chalkyitsik,Chalkyitsik AP,,,PACI,66.645028,-143.739889,167.0
81,USA,AK,Yukon-Koyukuk Census Area,Chandalar Lake,Chandalar Lake,,,PALR,67.504517,-148.483222,585.2
82,USA,AK,Sitka City and Borough,Chatham,Chatham,,,KCYM,57.51493833,-134.946215,0.0
83,USA,AK,Bethel Census Area,Chefornak,Chefornak,,,KCFK,60.14922556,-164.2856325,16.5
84,USA,AK,Bethel Census Area,Chefornak,Chefornak AP,,,PACK,60.136806,-164.279056,13.0
85,USA,AK,Valdez-Cordova Census Area,Chenega Bay,Chenega Bay AP,,,PFCB,60.078561,-147.994736,20.7
86,USA,AK,Aleutians West Census Area,Chernofski Harbor,Chernofski Harbor,,,KKCN,53.39911444,-167.5519,0.0
87,USA,AK,Wade Hampton Census Area,Chevak,Chevak,ADD/20121212,,PAVA,61.540833,-165.600889,18.6
88,USA,AK,Lake and Peninsula Borough,Chignik,Chignik Bay,,,KZ78,56.29561056,-158.4014797,0.0
89,USA,AK,Lake and Peninsula Borough,Chignik,Chignik AP,New identifier.,,PAJC,56.311464,-158.373239,5.5
90,USA,AK,Lake and Peninsula Borough,Chignik Lake,Chignik Lake,,,KA79,56.25504722,-158.7753614,15.2
91,USA,AK,Bethel Census Area,Chuathbaluk,Chuathbaluk,,,K9A3,61.57905556,-159.2156389,74.1
92,USA,AK,-,Chuathbaluk,Chuathbaluk,ADD/20161013,,PACH,61.579056,-159.215639,49.0
93,USA,AK,Matanuska-Susitna Borough,Chulitna,Chulitna,,,PAEC,62.883,-149.833,308.0
94,USA,AK,Yukon-Koyukuk Census Area,Circle City,Circle City AP,,,PACR,65.827917,-144.076197,186.8
95,USA,AK,Dillingham Census Area,Clarks Point|Clark's Point,Clarks Point AP,,,PFCL,58.833694,-158.529389,24.1
96,USA,AK,Denali Borough,Clear|Anderson,AFS,,,PACL,64.300389,-149.116528,170.4
97,USA,AK,Matanuska-Susitna Borough,Clearwater|Denali,Clearwater,,,KZ86,63.02677472,-147.1786403,883.9
98,USA,AK,Annette Island Reserve,Coffman Cove,Coffman Cove,,,KKCC,56.01480389,-132.8339225,0.0
99,USA,AK,Aleutians East Borough,Cold Bay,Blinn Lake,,,KZ87,55.25162722,-162.7534044,15.2
100,USA,AK,Aleutians East Borough,Cold Bay,Cold Bay AP|Thornbough AFB|Fort Randall Emergency Field,,,PACD,55.205917,-162.72625,30.2
101,USA,AK,Yukon-Koyukuk Census Area,Coldfoot,SAWRS,,,PACX,67.252194,-150.203889,319.7
102,USA,AK,Yukon-Koyukuk Census Area,Colorado Creek|Folger,Colorado Creek,,,KKCR,63.56772306,-155.9890436,262.1
103,USA,AK,Valdez-Cordova Census Area,Cordova|Crystal Falls,Mile 13 AP,ADD/20120717,,PACV,60.491778,-145.477556,16.2
104,USA,AK,Nome Census Area,Council,Council,,,KK29,64.89788278,-163.7034472,30.5
105,USA,AK,Annette Island Reserve,Craig|Deweyville (historical),El Capitan Lodge,,,K5C5,55.95858889,-133.2533722,0.0
106,USA,AK,Bethel Census Area,Crooked Creek,Crooked Creek,,,KCJX,61.86786111,-158.1349167,54.9
107,USA,AK,Bethel,Crooked Creek,Crooked Creek AP,ADD/20200708,,PACJ,61.867889,-158.134944,55.2
108,USA,AK,North Slope Borough,Deadhorse,Deadhorse,,,PASC,70.194753,-148.465164,20.4
109,USA,AK,North Slope Borough,Deadhorse|Alpine,Alpine Airstrip,,,PALP,70.344278,-150.94475,25.0
110,USA,AK,Northwest Arctic Borough,Deering,Deering AP,,,PADE,66.069111,-162.767056,8.8
111,USA,AK,Southeast Fairbanks Census Area,Delta Junction,Delta Junction,,,KD66,64.0504375,-145.7173264,350.5
112,USA,AK,Southeast Fairbanks Census Area,Delta Junction,Big Delta AAF|Fort Greely|Allen AAF,Allen AAF.,,PABI,63.994547,-145.721642,391.7
113,USA,AK,Matanuska-Susitna Borough,Denali,Road Commission Nr 1,,,K0Z2,63.10816028,-147.5319792,769.6
114,USA,AK,Dillingham Census Area,Dillingham,Dillingham,,,PADL,59.044667,-158.5055,25.0
115,USA,AK,Dillingham Census Area,Dillingham|Nelsonville,Shannons Pond,,,K0Z3,59.05897556,-158.57719,24.4
116,USA,AK,Nome Census Area,Diomede,Diomede,,,KDM2,65.75861111,-168.9530556,6.1
117,USA,AK,Aleutians West Census Area,Driftwood Bay|Cheerful (historical),AFS|AP,,,PAAM,53.97294998,-166.8584595,7.0
118,USA,AK,Anchorage Municipality,Eagle River,D&c Fire Lake Flying Club,,,KD72,61.35251944,-149.54635,89.9
119,USA,AK,Southeast Fairbanks Census Area,Eagle Village,Eagle Village AP,,,PAEG,64.778083,-141.149611,276.5
120,USA,AK,Bethel Census Area,Eek,Eek AP,,,PAEE,60.213694,-162.043889,7.9
121,USA,AK,Lake and Peninsula Borough,Egegik,Egegik,,,PAII,58.185492,-157.375428,28.0
122,USA,AK,Fairbanks North Star Borough,Eielson AFB|Pleasant Valley,Yukon Range Eielson,,,PAIR,64.717,-146.517,459.0
123,USA,AK,Hoonah-Angoon Census Area,Elfin Cove,Seaplane Base,,,PAEL,58.1952778,-136.3475,0.0
124,USA,AK,Nome Census Area,Elim,Elim AP,,,PFEL,64.614972,-162.270528,49.1
125,USA,AK,Valdez-Cordova Census Area,Ellamar,Ellamar,,,K1Z9,60.89390778,-146.7036919,0.0
127,USA,AK,Hoonah-Angoon Census Area,Entrance Island,Entrance Island,,,K2Z1,57.41215056,-133.4394989,0.0
128,USA,AK,Matanuska-Susitna Borough,Eureka|Eureka Roadhouse,Skelton,,,PAZK,60.913811,-161.493331,13.0
129,USA,AK,Denali Borough,Eva Creek|Lignite,Eva Creek,,,K2Z3,64.04204139,-148.86317,858.6
130,USA,AK,Fairbanks North Star Borough,Fairbanks|Broadmoor,Chena River,,,K2Z5,64.83289944,-147.8482583,134.1
131,USA,AK,Fairbanks North Star Borough,Fairbanks|Broadmoor,International AP,Opened 1951.,,PAFA,64.815111,-147.856447,133.8
132,USA,AK,Fairbanks North Star Borough,Fairbanks|Chena (historical),Gold King Creek,,,KAK7,64.19805556,-147.9286111,524.3
133,USA,AK,Fairbanks North Star Borough,Fairbanks|Eielson Air Force Base,Eielson/AFB,,,PAEI,64.665642,-147.101439,166.7
134,USA,AK,Fairbanks North Star Borough,Fairbanks|Hamilton Acres,Wainwright AAF | Ladd Field,,,PAFB,64.836517,-147.616867,136.6
135,USA,AK,Aleutians East Borough,False Pass,False Pass,,,PAKF,54.847861,-163.407111,5.5
136,USA,AK,Yukon-Koyukuk Census Area,Farewell Lake|Nikolai,Tin Creek,,,KTNW,62.53162028,-153.6111206,361.2
137,USA,AK,Yukon-Koyukuk Census Area,Farewell Lake|Nikolai,Seaplane Base,,,PAFK,62.54245389,-153.62251,320.7
138,USA,AK,Yukon-Koyukuk Census Area,Farewell|Nikolai,Farewell AP | Farewell FAA AP | Farewell Intermediate Field,Farewell Intermediate Field.,,PAFL,62.51666667,-153.8833333,468.0
139,USA,AK,Yukon-Koyukuk Census Area,Farewell|Nikolai,Farewell AP | Farewell FAA AP | Farewell Intermediate Field,Farewell Airport | Farewell FAA Airport.,,PAFW,62.5066667,-153.8936111,467.9
140,USA,AK,Nome Census Area,Feather River|Sullivan Camp,Feather River,,,K3Z1,64.83172722,-166.1315222,99.1
141,USA,AK,Yukon-Koyukuk Census Area,Five Mile Camp|Stevens Village,Five Mile Camp,,,PAFV,65.92704417,-149.8400781,155.4
142,USA,AK,Anchorage Municipality,Fort Richardson,Bryant AHP,,,PAFR,61.2659,-149.653308,117.7
143,USA,AK,Yukon-Koyukuk Census Area,Fort Yukon,Fort Yukon AP | Fort Yukon Intermediate Field,,,PFYU,66.572417,-145.246333,136.2
144,USA,AK,Hoonah-Angoon Census Area,Funter Bay,Seaplane,,,PANR,58.254361,-134.8978893,0.0
145,USA,AK,-,Galbraith Lake,Galbraith Lake,,,PAGB,68.479667,-149.489917,811.4
146,USA,AK,Yukon-Koyukuk Census Area,Galena,Edward G Pitka Sr AP | Galena Intermediate Field,,,PAGA,64.736197,-156.934958,46.6
147,USA,AK,Nome Census Area,Gambell,Gambell,,,PAGM,63.766611,-171.732778,8.8
148,USA,AK,Valdez-Cordova Census Area,Glacier Creek|Skolai (historical),Glacier Creek,,,KKGZ,61.45513444,-142.3809508,725.4
149,USA,AK,Fairbanks North Star Borough,Gold King Creek|Chena (historical),Gold King Creek AP|AFS,,,PAAN,64.198056,-147.928611,490.0
150,USA,AK,Dillingham Census Area,Golden Horn Lodge|Akuliukpak (historical),Golden Horn Lodge,,,K3Z8,59.74703944,-158.8747275,27.7
151,USA,AK,Nome Census Area,Golovin,Golovin,,,PAGL,64.550456,-163.007172,19.5
152,USA,AK,Nome Census Area,Granite Mountain|Haycock,Granite Mountain As,,,KGSZ,65.40213333,-161.281475,400.2
153,USA,AK,-,Grayling,Grayling,ADD/20161013,,PAGX,62.892086,-160.066397,15.0
154,USA,AK,Valdez-Cordova Census Area,Gulkana|Glennallen,Gulkana AP | Gulkana Intermediate Field,,,PAGK,62.154944,-145.454333,483.4
155,USA,AK,Hoonah-Angoon Census Area,Gustavus,Gustavus,,,PAGS,58.425278,-135.707417,11.0
156,USA,AK,Haines Borough,Haines|Gantegastaki (historical),Haines AP | Haines Intermediate Field (formerly),,,PAHN,59.243831,-135.523539,4.6
157,USA,AK,Haines Borough,Haines|Port Chilkoot,Haines,,,K3Z9,59.23495111,-135.4407181,0.0
158,USA,AK,Northwest Arctic Borough,Hannum Creek|Fink Creek,Upper Hannum Creek,,,K4Z2,65.90485806,-163.3290925,396.2
159,USA,AK,Denali Borough,Healy River,Healy River AP AWS,,,PAHV,63.867583,-148.968833,388.6
160,USA,AK,Yukon-Koyukuk Census Area,Holy Cross,Holy Cross,Start date approximate.,,PAHC,62.188306,-159.774944,22.6
161,USA,AK,Kenai Peninsula Borough,Homer,Homer-beluga Lake,,,K5BL,59.64466722,-151.5021258,7.6
162,USA,AK,Kenai Peninsula Borough,Homer|Millers Landing,Homer Municipal AP | Homer Intermediate Field (formerly),,,PAHO,59.644994,-151.485808,25.6
163,USA,AK,Hoonah-Angoon Census Area,Hoonah,Hoonah AP,,,PAOH,58.0962,-135.408756,6.4
164,USA,AK,Wade Hampton Census Area,Hooper Bay,Hooper Bay,,,PAHP,61.523861,-166.146611,5.8
165,USA,AK,Southeast Fairbanks Census Area,Horsfeld|Horsefeld (historical),Horsfeld,,,K4Z5,62.00717361,-141.181295,1103.4
166,USA,AK,Yukon-Koyukuk Census Area,Hughes,Hughes AP,,,PAHU,66.039083,-154.264694,90.8
167,USA,AK,Yukon-Koyukuk Census Area,Huslia,Huslia,,,KHLA,65.69786111,-156.3513889,66.8
168,USA,AK,Yukon-Koyukuk Census Area,Huslia,Huslia,Identifier given as PAHS in MASLIB but this disagrees with FAA assignment.,,PAHL,65.697861,-156.351389,95.0
169,USA,AK,Annette Island Reserve,Hydaburg,Seaplane,,,PAHY,55.20631611,-132.8283131,0.0
170,USA,AK,Annette Island Reserve,Hyder,Hyder,,,K4Z7,55.90331972,-130.0067031,0.0
171,USA,AK,Lake and Peninsula Borough,Igiugig,Igiugig,,,PAIG,59.324042,-155.901772,27.4
172,USA,AK,Lake and Peninsula Borough,Iliamna,Iliamna AP,,,PAIL,59.755578,-154.917753,58.5
173,USA,AK,Kenai Peninsula Borough,Jakolof Bay,Jakolof Bay,,,K4Z9,59.45216056,-151.5223811,1.5
174,USA,AK,Juneau City and Borough,Juneau|Mendenhall Valley,Juneau Intl AP | Juneau Intermediate Field (formerly),,,PAJN,58.354711,-134.578469,7.6
175,USA,AK,Juneau City and Borough,Juneau|Tsantikihin (historical),Juneau Harbor,,,K5Z1,58.29888889,-134.4077778,0.0
176,USA,AK,Petersburg Census Area,Kake,Kake AP,,,PAFE,56.961364,-133.910261,52.1
177,USA,AK,Yukon-Koyukuk Census Area,Kalakaket Creek|Takaiak (historical),Kalakaket Creek As,,,K1KC,64.42444722,-156.8433389,487.1
178,USA,AK,Bethel Census Area,Kalskag,Kalskag,,,PALG,61.535972,-160.345583,19.2
179,USA,AK,Yukon-Koyukuk Census Area,Kaltag,Kaltag,,,KAL,64.3,-158.717,48.0
180,USA,AK,Yukon-Koyukuk Census Area,Kaltag,Kaltag,,,PAKV,64.318981,-158.741306,55.2
181,USA,AK,Dillingham Census Area,Kanakanak|Nelsonville,Ans Hospital,,,K5Z4,59.00175278,-158.5324644,30.5
182,USA,AK,Denali Borough,Kantishna,Kantishna,,,K5Z5,63.54171472,-150.9939547,481.0
183,USA,AK,Denali Borough,Kantishna|Lagoon,Stampede,,,KZ90,63.74867806,-150.3295203,564.5
184,USA,AK,Kodiak Island Borough,Karluk,Karluk AP,,,PAKY,57.566056,-154.453806,43.0
185,USA,AK,Annette Island Reserve,Kasaan,Kasaan,,,KKXA,55.53741389,-132.3975144,0.0
186,USA,AK,Bethel Census Area,Kasigluk|Akolmiut,Kasigluk AP,,,PFKA,60.873333,-162.524306,14.3
187,USA,AK,Kenai Peninsula Borough,Kasilof,Kasilof,,,K5KS,60.35330917,-151.2627714,38.1
188,USA,AK,Kenai Peninsula Borough,Kasilof|Clam Gulch,Encelewski Lake,,,KAK5,60.25555556,-151.3030556,70.1
189,USA,AK,Kenai Peninsula Borough,Kasitsna Bay|Jakolof Bay,Kasitsna,,,K5Z7,59.46882694,-151.5732178,1.5
190,USA,AK,Lake and Peninsula Borough,Katmai National Park|Savonoski (historical),Lake Brooks,,,K5Z9,58.55484306,-155.7773875,11.0
191,USA,AK,Kenai Peninsula Borough,Kenai,Kenai Municipal AP | Kenai Intermediate Field (formerly),,,PAEN,60.573278,-151.244833,30.2
192,USA,AK,Kenai Peninsula Borough,Kenai|Nikiski,Island Lake,,,K2R3,60.70443611,-151.3114028,42.7
193,USA,AK,Ketchikan Gateway Borough,Ketchikan,Ketchikan Harbor,,,K5KE,55.34446389,-131.6634389,0.0
194,USA,AK,Ketchikan Gateway Borough,Ketchikan|Carlanna,International AP,,,PAKT,55.354083,-131.711222,28.0
195,USA,AK,Ketchikan Gateway Borough,Ketchikan|Peninsula Point,Murphys Pullout,,,K8K9,55.38965028,-131.7380742,0.0
196,USA,AK,Ketchikan Gateway Borough,Ketchikan|Peninsula Point,Peninsula Point Pullout,,,K9C0,55.38465056,-131.7383522,0.0
197,USA,AK,Northwest Arctic Borough,Kiana,Bob Baker Memorial,,,PAIK,66.975953,-160.436533,55.2
198,USA,AK,Aleutians East Borough,King Cove,King Cove,,,PAVC,55.116347,-162.266247,45.1
199,USA,AK,Bristol Bay Borough,King Salmon,King Salmon AFS,,,KQRC,58.683,-156.667,7.0
200,USA,AK,Bethel Census Area,Kipnuk,Kipnuk,,,PAKI,59.931611,-164.028111,5.8
201,USA,AK,Kodiak Island Borough,Kitoi Bay|Duck Village,Kitoi Bay,,,KKKB,58.19094611,-152.3704875,0.0
202,USA,AK,Northwest Arctic Borough,Kivalina,Kivalina,,,PAVL,67.736139,-164.5635,5.5
203,USA,AK,Annette Island Reserve,Klawock,Klawock AP,,,PAKW,55.579222,-133.076,24.1
204,USA,AK,Annette Island Reserve,Klawock,Seaplane Base,,,PAQC,55.5546575,-133.1016928,0.0
205,USA,AK,Northwest Arctic Borough,Kobuk|Wien,Kobuk AP,,,PAOB,66.912333,-156.897333,43.3
206,USA,AK,Kodiak Island Borough,Kodiak,Kodiak /lilly Lake/,,,K9Z3,57.80258389,-152.3827317,39.6
207,USA,AK,Kodiak Island Borough,Kodiak,Trident Basin,,,KT44,57.78083333,-152.3913889,0.0
208,USA,AK,Kodiak Island Borough,Kodiak,Kodiak Muni AP,,,PAKD,57.805917,-152.373842,42.4
209,USA,AK,Kodiak Island Borough,Kodiak|Kodiakak [MISSPELLING]|Kodiak Station,Kodiak AP,,,PADQ,57.749792,-152.493944,23.8
210,USA,AK,Bristol Bay Borough,Koggiung,Koggiung,,,K5KO,58.870105,-157.0104819,9.1
211,USA,AK,Lake and Peninsula Borough,Kokhanok,Kokhanok AP,,,PFKK,59.433286,-154.802592,34.7
212,USA,AK,Dillingham Census Area,Koliganek,New AP (New),,,PAJZ,59.72675,-157.26025,82.6
213,USA,AK,Bethel Census Area,Kongiganak,Kongiganak AP,,,PADY,59.961631,-162.880594,9.8
214,USA,AK,Wade Hampton Census Area,Kotlik,Kotlik AP,,,PFKO,63.030583,-163.532639,4.0
215,USA,AK,Northwest Arctic Borough,Kotzebue|Sheshalik,Ralph Wien Memorial AP | Kotzebue Intermediate Field,,,PAOT,66.884806,-162.598139,4.6
216,USA,AK,Nome Census Area,Koyuk,Koyuk AAF,,,PAKK,64.939528,-161.154278,49.1
217,USA,AK,Yukon-Koyukuk Census Area,Koyukuk,Koyukuk AP,,,PFKU,64.875806,-157.730444,45.1
218,USA,AK,Lake and Peninsula Borough,Kulik Lake|Nauklak (historical),Kulik Lake AP,,,PAKL,58.965564,-155.098514,218.5
219,USA,AK,North Slope Borough,Kuparuk|Prudhoe Bay,Ugnu Kuparuk AP,,,PAKU,70.330667,-149.598056,22.9
220,USA,AK,Lake and Peninsula Borough,Kvichak,Kvichak /diamond J/,,,K9Z7,58.96260694,-156.9321531,7.6
221,USA,AK,Bethel Census Area,Kwethluk,Kwethluk AP,,,PFKW,60.790333,-161.443694,7.6
222,USA,AK,Bethel Census Area,Kwigillingok,Kwigillingok,,,KGGV,59.87646944,-163.1685375,6.4
223,USA,AK,Bethel Census Area,Kwigillingok,Kwigillingok,,,KKWK,59.836725,-163.1403353,0.0
224,USA,AK,Bethel Census Area,Kwigillingok,Kwigillingok AP,,,PAGG,59.875586,-163.168039,6.4
225,USA,AK,Wade Hampton Census Area,Kwiguk|Emmonak,Kwiguk,,,PAEM,62.786139,-164.49075,4.9
226,USA,AK,Matanuska-Susitna Borough,Lake Louise,Lake Louise,,,K13S,62.28285528,-146.5188669,719.9
227,USA,AK,Kodiak Island Borough,Larsen Bay,Larsen Bay AP,,,PALB,57.535083,-153.976667,26.2
228,USA,AK,Kenai Peninsula Borough,Lawing|Falls,Lawing,,,K9Z9,60.41109639,-149.3701961,147.5
230,USA,AK,Matanuska-Susitna Borough,Lazy Mtn|Lazy Mountain,Wolverine Road,,,PAIZ,61.6333,-149.0333,214.0
231,USA,AK,Lake and Peninsula Borough,Levelock,Levelock,,,K9Z8,59.12808333,-156.8586389,16.8
232,USA,AK,Bethel Census Area,Lime Village,Lime Village,,,K2AK,61.35913056,-155.4403861,166.1
233,USA,AK,Yukon-Koyukuk Census Area,Livengood,Livengood Camp,,,K4AK,65.47261778,-148.6691711,130.2
234,USA,AK,North Slope Borough,Lonely|Kokruagarok,DEW Station,,,PALN,70.917,-153.25,6.0
235,USA,AK,Ketchikan Gateway Borough,Loring,Loring,,,K13Z,55.60130583,-131.6366831,0.0
236,USA,AK,Yukon-Koyukuk Census Area,Manley Hot Springs,Manley Hot Springs,,,PAML,64.987944,-150.647583,83.8
237,USA,AK,Dillingham Census Area,Manokotak,Manokotak,,,PAMB,58.932056,-158.901889,32.3
238,USA,AK,Wade Hampton Census Area,Marshall|Fortuna Ledge,Marshall Don Hunter Sr,,,KMDM,61.86427778,-162.0261097,35.1
239,USA,AK,Wade Hampton Census Area,Marshall|Fortuna Ledge,Marshall,,,PADM,61.864167,-162.026111,23.0
240,USA,AK,Valdez-Cordova Census Area,Mccarthy|May Creek,Jakes Bar,,,KAK0,61.21872167,-142.8898253,327.4
241,USA,AK,Yukon-Koyukuk Census Area,McGrath,McGrath,,,PAMC,62.952783,-155.607047,104.2
242,USA,AK,Yukon-Koyukuk Census Area,Mcgrath|McGrath,Mc Grath,,,K16Z,62.957985,-155.5931792,99.1
243,USA,AK,Denali Borough,McKinley|McKinley Park,National Park,,,PAIN,63.732597,-148.910639,524.3
244,USA,AK,Bethel Census Area,Mekoryuk,Mekoryuk,,,PAMY,60.372389,-166.270194,16.2
245,USA,AK,Bethel Census Area,Merrill Pass West|Old Village (historical),Merrill Pass West,,,PAER,61.2667,-153.8,357.0
246,USA,AK,Annette Island Reserve,Metlakatla,Seaplane Base,,,PAMM,55.13104528,-131.5780675,0.0
247,USA,AK,City and Borough of Wrangell,Meyers Chuck,Meyers Chuck,,,K84K,55.73963611,-132.2550183,0.0
248,USA,AK,-,Middleton Island,Middleton Island AP | Middleton Island Intermediate Field (formerly),,,PAMD,59.449944,-146.307242,30.5
249,USA,AK,Yukon-Koyukuk Census Area,Minchumina|Lake Minchumina,Minchumina AP | Minchumina Intermediate Field,,,PAMH,63.885972,-152.301833,207.6
250,USA,AK,Yukon-Koyukuk Census Area,Minto,Minto Al Wright,,,K51Z,65.14816944,-149.3685903,152.1
251,USA,AK,Kenai Peninsula Borough,Moose Pass|Dahl,Summit Lake,,,K52Z,60.64108111,-149.4971344,396.2
252,USA,AK,Wade Hampton Census Area,Mountain Village,Mountain Village AP,,,PAMO,62.094778,-163.682861,103.3
253,USA,AK,Valdez-Cordova Census Area,Nabesna,Devils Mtn Lodge AP|Devil Mtn,,,PABN,62.40184611,-142.9954681,877.8
254,USA,AK,Lake and Peninsula Borough,Nakeen,Nakeen,,,K76Z,58.927605,-157.0471522,15.2
255,USA,AK,Bristol Bay Borough,Naknek,Naknek,,,K5NK,58.73288056,-157.0199197,21.3
256,USA,AK,Bristol Bay Borough,Naknek|King Salmon,King Salmon AP | Naknek Intermediate Field,,,PAKN,58.676494,-156.648692,22.3
257,USA,AK,Matanuska-Susitna Borough,Nancy Lake|Willow Lake,Nancy Lake,,,K78Z,61.685025,-149.9801611,65.2
258,USA,AK,Bethel Census Area,Napakiak,Napakiak AP,,,PANA,60.690333,-161.9785,4.9
259,USA,AK,Bethel Census Area,Napaskiak,Napaskiak AP,,,PAPK,60.702917,-161.778306,7.3
260,USA,AK,Aleutians East Borough,Nelson Lagoon,Nelson Lagoon,,,KOUL,56.00753611,-161.1603672,4.3
261,USA,AK,Aleutians East Borough,Nelson Lagoon,Nelson Lagoon,,,PAOU,56.007536,-161.160367,5.0
262,USA,AK,Yukon-Koyukuk Census Area,Nenana,Nenana Muni AP,,,PANN,64.547331,-149.073975,112.2
264,USA,AK,Dillingham Census Area,New Stuyahok,New Stuyahok,,,PANW,59.451528,-157.373167,113.1
265,USA,AK,Bethel Census Area,Newtok,Newtok,,,KWWT,60.92365417,-164.6562139,1.8
266,USA,AK,Bethel Census Area,Newtok,Newtok AP,,,PAEW,60.939139,-164.64125,7.6
267,USA,AK,Bethel Census Area,Nightmute,Nightmute,,,PAGT,60.47104722,-164.7008389,2.1
268,USA,AK,Yukon-Koyukuk Census Area,Nikolai,Nikolai,,,PAFS,63.018558,-154.358439,136.2
269,USA,AK,Aleutians West Census Area,Nikolski,Nikolski,,,PAKO,52.941556,-168.849028,23.2
270,USA,AK,Northwest Arctic Borough,Noatak,Noatak,,,PAWN,67.561167,-162.980417,27.7
271,USA,AK,Nome Census Area,Nome,Nome City Field,,,K94Z,64.51142228,-165.3902302,21.0
272,USA,AK,Nome Census Area,Nome,AP | Mark Field AAF | Markfield,,,PAOM,64.512556,-165.444389,12.2
273,USA,AK,Lake and Peninsula Borough,Nondalton,Nondalton AP,,,PANO,59.980231,-154.839175,95.7
274,USA,AK,Kent County,Noorvik|Andrewsville,Robert Curtis Memorial AP,,,PFNO,66.817528,-161.02225,16.8
275,USA,AK,Northwest Arctic Borough,Noorvik|Old Kotzebue,Robert/bob/curtis Memorial,,,KD76,66.81752778,-161.02225,16.5
276,USA,AK,Fairbanks North Star Borough,North Pole|Highland Park,Bradley Sky-ranch,,,K95Z,64.75922222,-147.3876389,147.2
277,USA,AK,Annette Island Reserve,North Whale Pass,North Whale,,,K96Z,56.11631056,-133.1217153,0.0
278,USA,AK,Southeast Fairbanks Census Area,Northway,Northway AP | Northway Intermediate Field,,,PAOR,62.961167,-141.928083,524.3
279,USA,AK,North Slope Borough,Nuiqsut,Nuiqsut AP,,,PAQT,70.209833,-151.006472,13.7
280,USA,AK,Yukon-Koyukuk Census Area,Nulato,Nulato AP,,,PANU,64.729333,-158.074222,123.4
281,USA,AK,Bethel Census Area,Nunapitchuk,Nunapitchuk,,,K16A,60.90601083,-162.4405911,6.4
282,USA,AK,Kodiak Island Borough,Old Harbor,Old Harbor,,,K6R7,57.21810306,-153.2697494,16.8
283,USA,AK,Kodiak Island Borough,Olga Bay|Akhiok,Olga Bay,,,KKOY,57.1614525,-154.2297933,0.0
284,USA,AK,-,Oliktok Point/lrrs Aiportak,Oliktok Point/lrrs Aiportak,,,POLI,70.496389,-149.881389,15.0
285,USA,AK,Yukon-Koyukuk Census Area,Ophir,Ophir,,,KZ17,63.1460375,-156.529865,181.4
286,USA,AK,Kodiak Island Borough,Ouzinkie,Ouzinkie,,,K4K5,57.92287611,-152.5005111,30.2
287,USA,AK,Matanuska-Susitna Borough,Palmer|Butte,Butte Muni,,,KAK1,61.53031528,-149.0176361,19.5
288,USA,AK,Matanuska-Susitna Borough,Palmer|Farm Loop,Palmer Muni AP,,,PAAQ,61.594917,-149.088722,75.6
289,USA,AK,Matanuska-Susitna Borough,Palmer|Lakes,Gooding Lake,,,K2D3,61.62771944,-149.2390694,152.4
290,USA,AK,Valdez-Cordova Census Area,Paxson,Paxson,,,PAXK,63.024581,-145.50055,808.6
291,USA,AK,Lake and Peninsula Borough,Pedro Bay,Pedro Bay,,,K4K0,59.78960972,-154.1238331,25.3
292,USA,AK,Valdez-Cordova Census Area,Perry Island|Kiniklik (historical),Perry Island,,,KPYL,60.68528694,-147.9187361,0.0
293,USA,AK,Lake and Peninsula Borough,Perryville,Perryville AP,,,PAPE,55.906725,-159.160831,8.8
294,USA,AK,Wrangell-Petersburg Census Area,Petersburg,Lloyd R. Roundtree Seaplane Facility,,,K63A,56.81131972,-132.9600567,0.0
295,USA,AK,Wrangell-Petersburg Census Area,Petersburg,Petersburg,,,PAPG,56.801472,-132.946222,34.4
296,USA,AK,Lake and Peninsula Borough,Pilot Point,Pilot Point,,,KPNP,57.58038056,-157.5719569,17.4
299,USA,AK,Lake and Peninsula Borough,Pilot Point,Pilot Point,,,PAPN,57.580381,-157.571958,17.4
300,USA,AK,Wade Hampton Census Area,Pilot Station,Pilot Station,,,K0AK,61.93455556,-162.8995556,144.2
301,USA,AK,Bethel Census Area,Platinum,Platinum,,,PAPM,59.017831,-161.827192,5.5
302,USA,AK,North Slope Borough,Point Hope,Point Hope AP,,,PAPO,68.34875,-166.799278,5.5
303,USA,AK,North Slope Borough,Point Lay,DEW,,,PPIZ,69.732889,-163.005333,8.5
304,USA,AK,-,Point Thomson Airstrip,Point,ADD/20161013,,PAAD,70.136,-146.290028,7.0
305,USA,AK,Petersburg Census Area,Port Alexander,SPB,The AHP FAA identifier is current in 2009 FAA LID (090529TV).,,PAAP,56.24684222,-134.6481539,0.0
306,USA,AK,Annette Island Reserve,Port Alice,Port Alice,,,K16K,55.78490528,-133.5942236,0.0
307,USA,AK,Lake and Peninsula Borough,Port Alsworth,Port Alsworth,,,KTPO,60.20433333,-154.3188728,85.3
308,USA,AK,Lake and Peninsula Borough,Port Alsworth,Wilder/Natwick LLC,ADD/20190717.,,PAKX,60.19848,-154.32305,87.8
309,USA,AK,Nome Census Area,Port Clarence|Point Clarence,CGS,,,PAPC,65.253456,-166.857628,3.0
310,USA,AK,Lake and Peninsula Borough,Port Heiden,AP | Fort Morrow Emergency Field,,,PAPH,56.9591,-158.633361,29.0
311,USA,AK,Aleutians East Borough,Port Moller,Port Moller AFLD,,,PAAL,56.005986,-160.560792,6.0
312,USA,AK,Annette Island Reserve,Port Protection,Port Protection,,,K19P,56.32880417,-133.6100844,0.0
313,USA,AK,Sitka City and Borough,Port Walter|Big Port Walter (historical),Port Walter,,,KPWR,56.38101722,-134.6509311,0.0
314,USA,AK,Kodiak Island Borough,Port Williams,Port Williams,,,KKPR,58.49013694,-152.582165,0.0
315,USA,AK,Dillingham Census Area,Portage Creek,Portage Creek AP,,,PAOC,58.906525,-157.711167,39.3
317,USA,AK,Yukon-Koyukuk Census Area,Prospect Creek|Coldfoot,Prospect Creek,,,PAPR,66.814056,-150.643611,333.5
318,USA,AK,North Slope Borough,Prudhoe Bay,Prudhoe Bay,,,PAUD,70.25,-148.3333,17.0
319,USA,AK,-,Puntilla,Lake,,,PAPT,62.1,-152.75,560.0
320,USA,AK,Matanuska-Susitna Borough,Purkeypile|Chelatna Lodge,Purkeypile,,,K01A,62.94361083,-152.2700164,622.1
321,USA,AK,Yukon-Koyukuk Census Area,Quail Creek|Rampart,Quail Creek,,,K20K,65.35398083,-149.7622242,480.4
322,USA,AK,Nome Census Area,Quartz Creek|Dahl,Quartz Creek /kougarok/,,,K5QC,65.40593306,-164.6557247,126.8
323,USA,AK,Bethel Census Area,Quinhagak,Quinhagak,,,KAQH,59.75509444,-161.8453667,12.5
324,USA,AK,Bethel Census Area,Quinhagak|Kwinhagak,Quinhagak AP,,,PAQH,59.755094,-161.845367,10.0
325,USA,AK,-,Rainy Pass,Rainy Pass Lodge,,,K6AK,62.08414194,-152.7175247,579.1
326,USA,AK,Northwest Arctic Borough,Red Dog Mine,Red Dog Mine AP,Official ICAO (090529TV).,,PADG,68.032111,-162.899194,295.4
327,USA,AK,Yukon-Koyukuk Census Area,Ruby,Ruby,,,PARY,64.727214,-155.469889,200.3
328,USA,AK,Wade Hampton Census Area,Russian Mission,Russian Mission,,,PARS,61.774892,-161.3194,17.7
329,USA,AK,Petersburg Census Area,Saginaw Bay|Kake,Saginaw,,,KA23,56.88633222,-134.1583878,0.0
330,USA,AK,Wade Hampton Census Area,Saint Marys|St Marys|Andreafsky|Pitkas Point,Saint Marys,,,PASM,62.060833,-163.301833,95.1
331,USA,AK,Nome Census Area,Salmon Lake|Pilgrim Springs,Salmon Lake,,,KZ81,64.90924778,-165.0126275,155.1
332,USA,AK,Kodiak Island Borough,San Juan|Port O'Brien,San Juan /uganik/,,,KWSJ,57.73037444,-153.3205972,0.0
333,USA,AK,Aleutians East Borough,Sand Point,Sand Point,,,PASD,55.313694,-160.521417,7.0
335,USA,AK,Nome Census Area,Savoonga,Savoonga,,,PASA,63.686278,-170.493167,18.0
336,USA,AK,Wade Hampton Census Area,Scammon Bay,Scammon Bay,,,PACM,61.844542,-165.57375,6.7
337,USA,AK,Northwest Arctic Borough,Selawik,Selawik,,,PASK,66.600139,-159.98575,5.2
338,USA,AK,Kenai Peninsula Borough,Seldovia,Seldovia,,,KA27,59.43410528,-151.7076611,0.0
339,USA,AK,Kenai Peninsula Borough,Seldovia,Seldovia,,,PASO,59.443906,-151.705042,8.8
340,USA,AK,Kenai Peninsula Borough,Seward,Seward,,,KSWD,60.12693833,-149.4188122,8.2
342,USA,AK,Kenai Peninsula Borough,Seward,Seward,,,PAWD,60.11666667,-149.45,9.0
343,USA,AK,Yukon-Koyukuk Census Area,Shageluk,Shageluk AP,,,PAHX,62.692306,-159.569222,23.8
344,USA,AK,Nome Census Area,Shaktoolik,Shaktoolik,,,K2C7,64.37108333,-161.2239722,7.3
345,USA,AK,Nome Census Area,Shaktoolik,Shaktoolik AP,,,PFSH,64.371083,-161.223972,7.3
347,USA,AK,Matanuska-Susitna Borough,Sheep Mountain|Glacier View,Sheep Mountain,,,PASP,61.811281,-147.509053,838.2
348,USA,AK,Aleutians West Census Area,Shemya|Attu,Eareckson AFS | Shemya AFB | Shemya NS,,,PASY,52.712258,174.113589,29.6
349,USA,AK,Nome Census Area,Shishmaref,Shishmaref,,,PASH,66.249583,-166.089361,4.0
350,USA,AK,Northwest Arctic Borough,Shungnak,Shungnak AP | Shungnak Intermediate Field,,,PAGH,66.888078,-157.162403,62.5
351,USA,AK,Hoonah-Angoon Census Area,Sisters Island|Hoonah,Sisters Island,,,PASS,58.1667,-135.25,0.0
352,USA,AK,-,Sitka (met Radar Site)ak,Sitka (met Radar Site)ak,,,PAKA,60.872389,-146.691167,3.0
353,USA,AK,Sitka City and Borough,Sitka|Mount Edgecumbe,Sitka,,,KA29,57.05213778,-135.3462086,0.0
354,USA,AK,Sitka City and Borough,Sitka|Mount Edgecumbe,Japonski AP,,,PASI,57.046833,-135.361069,7.9
355,USA,AK,Skagway Municipality,Skagway,Skagway,,,K7K2,59.44689528,-135.3226633,0.0
356,USA,AK,Skagway Municipality,Skagway,Skagway,,,PAGY,59.460061,-135.315664,13.4
358,USA,AK,Matanuska-Susitna Borough,Skwentna,Skwentna Intermediate Field,,,PASW,61.966114,-151.195392,45.1
359,USA,AK,Bethel Census Area,Sleetmute,Sleetmute,,,PASL,61.7005,-157.165861,58.2
360,USA,AK,Kenai Peninsula Borough,Soldotna,Soldotna Hospital H,,,KSD1,60.49137333,-151.0777794,30.2
362,USA,AK,Kenai Peninsula Borough,Soldotna,Soldotna,,,PASX,60.475139,-151.039639,34.4
363,USA,AK,Kenai Peninsula Borough,Soldotna|Ridgeway,Mackeys Lakes,,,KL85,60.53361111,-150.9955556,53.3
364,USA,AK,Bristol Bay Borough,South Naknek,AP #2,,,PFWS,58.702083,-157.002583,49.4
365,USA,AK,Bethel Census Area,Sparrevohn|Lime Village,AFS,,,PASV,61.097114,-155.574808,477.0
366,USA,AK,Aleutians East Borough,Squaw Harbor,Squaw Harbor,,,K36H,55.23333917,-160.5520264,0.0
367,USA,AK,Aleutians West Census Area,St George Island|Saint George,St George Island,,,PAPB,56.577361,-169.663722,38.7
368,USA,AK,Nome Census Area,St Michael|Saint Michael,St Michael,,,PAMK,63.490056,-162.110389,29.9
369,USA,AK,Aleutians West Census Area,St. Paul Island|Saint Paul Island,St. Paul Island,,,PASN,57.166306,-170.222556,20.1
370,USA,AK,Yukon-Koyukuk Census Area,Stevens Village,Stevens Village AP,ICAO add 20210128. This is not Five Mile Airport.,,PFSV,66.01706111,-149.0543694,100.0
371,USA,AK,Denali Borough,Summit,Summit,,,PAST,63.331039,-149.128836,734.3
372,USA,AK,Matanuska-Susitna Borough,Sutton|Jonesville,Sutton,,,PAJV,61.73141639,-148.9277606,265.2
373,USA,AK,Matanuska-Susitna Borough,Tahneta Pass|Glacier View,Tahneta Pass,,,PAHE,61.9013889,-147.3044444,890.0
374,USA,AK,Juneau City and Borough,Taku Harbor,Taku Harbor,,,KA43,58.06911389,-134.0153564,0.0
375,USA,AK,-,Taku Lodge|Tulsequah,Taku Lodge,,,KTKL,58.48968306,-133.9434211,0.0
376,USA,AK,Matanuska-Susitna Borough,Talkeetna,Christiansen Lake,,,KAK8,62.31341389,-150.06935,121.9
377,USA,AK,Matanuska-Susitna Borough,Talkeetna,AP | Talkeetna Intermediate Field,,,PATK,62.321361,-150.092722,111.3
378,USA,AK,Yukon-Koyukuk Census Area,Tanana,Calhoun Memorial | Tanana Intermediate Field,,,PATA,65.174389,-152.108111,73.8
379,USA,AK,Yukon-Koyukuk Census Area,Tatalina|Takotna,Tatalina,,,PATL,62.894908,-155.978039,284.4
380,USA,AK,Valdez-Cordova Census Area,Tatitlek,Tatitlek,,,K7KA,60.87238889,-146.6911667,18.6
381,USA,AK,-,Tatitna,Tatitna,,,K8KA,62.29328694,-153.3619531,454.2
382,USA,AK,Valdez-Cordova Census Area,Tazlina|Mendeltna,Tazlina /smokey Lake/,,,K5AK,62.0634,-146.4494114,733.7
383,USA,AK,Valdez-Cordova Census Area,Tazlina|Mendeltna,Tazlina,,,KZ14,62.06478861,-146.4605219,746.8
384,USA,AK,Yukon-Koyukuk Census Area,Telida,Telida,,,K2K5,63.39387278,-153.2689733,198.1
385,USA,AK,Nome Census Area,Teller,Teller,,,PATE,65.240389,-166.339389,90.8
386,USA,AK,Southeast Fairbanks Census Area,Tetlin,Tetlin,,,K3T4,63.125,-142.5183333,509.0
387,USA,AK,Valdez-Cordova Census Area,Thompson Pass|Ptarmigan,Thompson Pass,,,KK55,61.17727028,-145.6884339,634.0
388,USA,AK,Nome Census Area,Tin City,AFS,,,PATC,65.564025,-167.922519,83.2
389,USA,AK,Dillingham Census Area,Togiak Village|Togiac Village,Togiak Village,,,PATG,59.053556,-160.396778,5.5
390,USA,AK,Southeast Fairbanks Census Area,Tok Junction,Tok Junction AP,,,PFTO,63.329514,-142.953683,500.5
391,USA,AK,Southeast Fairbanks Census Area,Tok|Tetlin Junction,Tok,,,PATJ,63.3294444,-142.9533333,491.0
392,USA,AK,Annette Island Reserve,Tokeen|New Tokeen,Tokeen,,,K57A,55.93713333,-133.3267214,0.0
393,USA,AK,Valdez-Cordova Census Area,Tolsona Lake,Tolsona Lake,,,K58A,62.11341139,-146.0410667,609.6
394,USA,AK,Bethel Census Area,Tooksok Bay|Toksook Bay,Tooksok Bay AP,,,PAOO,60.541333,-165.087194,21.9
395,USA,AK,Denali Borough,Totatlanika River|Usibelli,Totatlanika River,,,K9AK,64.02565972,-148.5223375,828.2
396,USA,AK,Bethel Census Area,Tuntutuliak,Tuntutuliak,,,KA61,60.33534556,-162.6670094,4.9
397,USA,AK,Bethel Census Area,Tuntutuliak,Tuntutuliak,,,KZ20,60.34145667,-162.6656206,4.6
398,USA,AK,Bethel Census Area,Tununak,Tununak,ICAO added 20210128.,,POKA,60.57554694,-165.2716483,18.9
399,USA,AK,Dillingham Census Area,Twin Hills,Twin Hills,,,KA63,59.074525,-160.2750417,25.0
400,USA,AK,Kenai Peninsula Borough,Tyonek,Tyonek,,,KTYE,61.0766625,-151.1380703,33.5
401,USA,AK,Lake and Peninsula Borough,Ugashik,Ugashik,,,K9A8,57.523425,-157.3959944,13.1
402,USA,AK,North Slope Borough,Umiat,AP | Umiat Intermediate Field,,,PAUM,69.371114,-152.134983,81.4
403,USA,AK,Nome Census Area,Unalakleet,AP | Unalakleet Intermediate Field,,,PAUN,63.8885,-160.799111,8.2
404,USA,AK,Aleutians West Census Area,Unalaska|Dutch Harbor,Unalaska AP|Dutch Harbor AP|Dutch Harbor Emergency Field,,,PADU,53.898944,-166.545028,7.0
405,USA,AK,Yukon-Koyukuk Census Area,Utopia Creek|Hughes,Indian Mountain AFS|Indian Mountain LRRS AP,,,PAIM,65.992772,-153.703489,384.4
406,USA,AK,Valdez-Cordova Census Area,Valdez,WSO,,,PAVW,61.13333333,-146.35,11.0
407,USA,AK,Valdez-Cordova Census Area,Valdez|Old Valdez,Robe Lake,,,KL93,61.08712222,-146.1440083,11.9
408,USA,AK,Valdez-Cordova Census Area,Valdez|Old Valdez,AP #2|Municipal AP,,,PAVD,61.134217,-146.244761,36.9
409,USA,AK,Yukon-Koyukuk Census Area,Venetie,Venetie AP,,,PAVE,67.008675,-146.366358,175.0
410,USA,AK,North Slope Borough,Wainwright,Wainwright AP,,,PAWI,70.638,-159.99475,13.7
411,USA,AK,North Slope Borough,Wainwright|Ft Wainwright,Ft Wainwright AFS|DEW Station,,,PAWT,70.6133333,-159.8602778,11.0
412,USA,AK,Nome Census Area,Wales,Wales,,,PAIW,65.622586,-168.094939,7.6
413,USA,AK,Matanuska-Susitna Borough,Wasilla,Upper Wasilla Lake,,,K3K9,61.58875,-149.3850611,100.6
414,USA,AK,Matanuska-Susitna Borough,Wasilla,Lake Lucille,,,K4A3,61.57465,-149.4727778,91.4
415,USA,AK,Matanuska-Susitna Borough,Wasilla,Wasilla Lake,,,K5L6,61.58640611,-149.4074992,100.6
416,USA,AK,Matanuska-Susitna Borough,Wasilla|Cottonwood,Wasilla AP,,,PAWS,61.571658,-149.540294,107.6
417,USA,AK,Matanuska-Susitna Borough,Wasilla|Lakes,Cottonwood Lake,,,K3H3,61.59761111,-149.3163611,91.4
418,USA,AK,Matanuska-Susitna Borough,Wasilla|Meadow Lakes,Island Lake,,,K29A,61.62890278,-149.6178403,112.8
419,USA,AK,Matanuska-Susitna Borough,Wasilla|Meadow Lakes,Seymour Lake Spb,,,K3A3,61.61346111,-149.6655694,97.5
420,USA,AK,Matanuska-Susitna Borough,Wasilla|Meadow Lakes,Blodget Lake,,,KD75,61.57608056,-149.6755694,73.8
421,USA,AK,Matanuska-Susitna Borough,Wasilla|Meadow Lakes,Visnaw Lake,,,KT66,61.61901111,-149.6785611,91.4
422,USA,AK,Annette Island Reserve,Waterfall,Waterfall,,,KKWF,55.29632278,-133.2433358,0.0
423,USA,AK,Nome Census Area,White Mountain,White Mountain AP,,,PAWM,64.689194,-163.41275,81.4
424,USA,AK,Valdez-Cordova Census Area,Whittier,Whittier,,,PATO,60.78,-148.83,29.0
425,USA,AK,Valdez-Cordova Census Area,Whittier,Whittier AP,,,PAWR,60.777169,-148.719653,11.9
426,USA,AK,Matanuska-Susitna Borough,Willow,Willow Spb,,,K2X2,61.74398889,-150.0591389,61.0
427,USA,AK,Matanuska-Susitna Borough,Willow,Willow AP,,,PAUO,61.754189,-150.051739,65.5
428,USA,AK,Matanuska-Susitna Borough,Willow|Willow Lake,Minuteman Lake,,,KMFN,61.72131111,-150.0468694,89.9
429,USA,AK,City and Borough of Wrangell,Wrangell,Wrangell,,,K68A,56.466325,-132.3800181,0.0
430,USA,AK,City and Borough of Wrangell,Wrangell,Wrangell,,,PAWG,56.484333,-132.369833,13.4
431,USA,AK,Valdez-Cordova Census Area,Yakataga|Cape Yakataga,Cape,,,PACY,60.08333333,-142.5,4.0
432,USA,AK,Yakutat City and Borough,Yakutat,Yakutat,,,K2Y3,59.5624775,-139.7410994,0.0
433,USA,AK,-,Yakutat,Alsek River,,,KA57,59.19921667,-138.451,16.2
434,USA,AK,-,Yakutat,Tanis Mesa,,,KA69,59.24804194,-138.5036706,55.8
435,USA,AK,Yakutat City and Borough,Yakutat,Yakutat AP | Yakutat Intermediate Field|Yakutat AAF,,,PAYA,59.503322,-139.660269,11.9
436,USA,AK,Yakutat City and Borough,Yakutat|Situk,Harlequin Lake,,,KA67,59.41443889,-139.0250494,34.4
437,USA,AK,Yakutat City and Borough,Yakutat|Situk,Dangerous River,,,KA70,59.40471667,-139.2329333,15.2
438,USA,AK,Yakutat City and Borough,Yakutat|Situk Village (historical),Situk,,,KA68,59.55164417,-139.5091878,18.3
439,USA,AK,Yukon-Koyukuk Census Area,Yankee Creek|Ganes Creek,Yankee Creek 2,,,KA77,63.00186806,-156.3673603,341.4
440,USA,AK,Ketchikan Gateway Borough,Yes Bay|Yes Bay (historical),Yes Bay Lodge,,,K78K,55.91630139,-131.8011336,0.0
441,USA,AK,Yukon-Koyukuk Census Area,Yukon Charley Rivers|Coal Creek,Coal Creek,,,KL20,65.31133556,-143.1354517,264.3
442,USA,AL,Henry County,Abbeville,Abbeville Muni,,,K0J0,31.60016667,-85.23816667,141.1
443,USA,AL,Winston County,Addison,Addison Muni,,,K2A8,34.20926833,-87.15806722,239.6
444,USA,AL,Shelby County,Alabaster|Varnons,Shelby County,,,KEET,33.177778,-86.783222,178.3
445,USA,AL,Marshall County,Albertville|White Oak,Albertville Regional AP & Thomas J Brumlik Field,,,K8A0,34.22911111,-86.25575,314.6
446,USA,AL,Tallapoosa County,Alexander City|Elkahatchee Park,Thomas C Russell Field AP,,,KALX,32.91475,-85.962944,208.8
447,USA,AL,Pickens County,Aliceville,George Downer AP,,,KAIV,33.106744,-88.197175,45.7
448,USA,AL,Covington County,Andalusia|Sanford,Opp AP,,,K79J,31.30875,-86.39377778,94.5
449,USA,AL,Calhoun County,Anniston|House (historical),Calhoun County,,,KANB,33.588167,-85.858111,186.5
450,USA,AL,Limestone County,Ardmore|Estaville (historical),Ardmore,,,K1M3,34.9778625,-86.88472611,281.0
451,USA,AL,Clay County,Ashland/lineville|Midway,Ashland/lineville,,,K26A,33.28402778,-85.80902778,324.6
452,USA,AL,Escambia County,Atmore|Malta,Atmore Muni,,,K0R1,31.01621528,-87.44675694,87.2
453,USA,AL,Lee County,Auburn|Indian Hills,Opelika/Robert G Pitts AP,,,KAUO,32.615119,-85.434014,236.5
454,USA,AL,Baldwin County,Barin|Cypress Acres Mobile Home Park,Naval Air Facility,,,KNBJ,30.38908722,-87.6352625,15.2
455,USA,AL,Baldwin County,Bay Minette|D'Olive,Bay Minette Muni,,,K1R8,30.87033333,-87.81933333,75.6
456,USA,AL,Mobile County,Bayou La Batre|CNA Estates Mobile Home Park,Roy E. Ray,,,K5R7,30.45464139,-88.21055806,26.5
457,USA,AL,Kodiak Island Borough,Bessemer Airport|Larsen Bay,Bessemer Airport,,,K2A3,57.53508333,-153.9766667,26.2
458,USA,AL,Shelby County,Bessemer|Highlands,Bessemer AP,,,KEKY,33.312611,-86.926306,213.1
459,USA,AL,Jefferson County,Birmingham|Kingsway Terrace,Birmingham Muni AP,,,KBHM,33.563889,-86.752306,198.1
460,USA,AL,Escambia County,Brewton|Riverview,Brewton AP,,,K12J,31.05083333,-87.06597222,29.9
461,USA,AL,Pike County,Brundidge|Broad View,Brundidge Muni,,,K60A,31.73280556,-85.80419444,145.1
462,USA,AL,Choctaw County,Butler|Mount Sterling,Choctaw County,,,K09A,32.11931306,-88.1274625,40.5
463,USA,AL,Wilcox County,Camden|Rockwest,Camden Muni,,,K61A,31.97974722,-87.33911528,43.3
464,USA,AL,Cherokee County,Centre|Northwood Estates,Centre Muni,,,KC22,34.15987361,-85.63512944,188.7
465,USA,AL,Cherokee County,Centre-Piedmont-Cherokee County Regional|Coloma (historical),Centre-Piedmont-Cherokee County Regional AP,,,KPYP,34.089917,-85.610083,181.1
466,USA,AL,Bibb County,Centreville|Vick,Bibb County AP,,,K0A8,32.93693889,-87.09054722,76.2
467,USA,AL,Washington County,Chatom|Rutan,Roy Wilcox,,,K5R1,31.45183222,-88.19445306,50.6
468,USA,AL,Chilton County,Clanton,Chilton County,,,K02A,32.85048333,-86.61143611,178.0
469,USA,AL,Barbour County,Clayton,Clayton Muni,,,K11A,31.88333333,-85.48522222,132.3
470,USA,AL,Lawrence County,Courtland|Courtland Downs,Lawrence County,,,K9A4,34.65938889,-87.34883333,179.2
471,USA,AL,Mobile County,Creola|Dead Lake Mobile Home Park,Mark Reynolds/north Mobile County,,,K15A,30.91323889,-87.98055278,2.4
472,USA,AL,Cullman County,Cullman,Cullman Rgnl-folsom Field,ADD/20130801.,,KCMD,34.268694,-86.858028,295.4
473,USA,AL,Cullman County,Cullman|North Vinemont,Folsom Field*,,,K3A1,34.26869444,-86.85802778,295.4
474,USA,AL,Mobile County,Dauphin Island|Trade Winds Trailer Park,Dauphin Island,,,K4R9,30.26049167,-88.12747222,1.5
475,USA,AL,Limestone County,Decatur|Irvington,Pryor Field,,,KDCU,34.654056,-86.945361,180.4
476,USA,AL,Marengo County,Demopolis|Paces (historical),Demopolis Muni AP,,,KDYA,32.463833,-87.954056,33.8
477,USA,AL,Dale County,Dothan|Napier Field,Regional AP,,,KDHN,31.321028,-85.449472,121.9
478,USA,AL,Winston County,Double Springs|Lakeshore,Double Springs-winston County,,,K3M2,34.14430556,-87.32775,229.5
479,USA,AL,Coffee County,Elba,Carl Folsom,,,K14J,31.41004167,-86.09033611,78.6
480,USA,AL,Coffee County,Enterprise|Pine Forest,Enterprise Municipal AP,,,KEDN,31.299722,-85.899833,109.7
481,USA,AL,Barbour County,Eufaula|Big Eddy (historical),Weedon Field AP,,,KEUF,31.951306,-85.128917,86.9
482,USA,AL,Greene County,Eutaw|Gosa,Eutaw Muni,,,K3A7,32.82096278,-87.86251361,51.8
483,USA,AL,Conecuh County,Evergreen|Fairview,Evergreen Middleton Field | Evergreen Intermediate Field | Evergreen CAA AP,Middleton Field.,,KEVR,31.417,-87.033,78.0
484,USA,AL,Conecuh County,Evergreen|Fairview,Evergreen Middleton Field | Evergreen Intermediate Field | Evergreen CAA AP,ASOS.,,KGZH,31.415,-87.043361,78.9
485,USA,AL,Baldwin County,Fairhope|Country Living Mobile Home Park,H L Sonny Callahan AP,,,K4R4,30.4605,-87.87702778,27.7
486,USA,AL,Baldwin County,Fairhope|Country Living Mobile Home Park,H L Sonny Callahan,ADD/20120209.,,KCQF,30.4605,-87.877028,27.7
487,USA,AL,Baldwin County,Fairhope|River Park,Fish River,,,K5AL,30.45,-87.80777778,0.9
488,USA,AL,Fayette County,Fayette|Old Town,Richard Arthur Field,,,KM95,33.70910525,-87.81520892,108.8
489,USA,AL,Covington County,Florala|Stedman,Florala Municipal AP,,,K0J4,31.04247361,-86.31156111,95.7
490,USA,AL,Baldwin County,Foley|Country Village Mobile Home Park,Foley Muni,,,K5R4,30.42766667,-87.70097222,22.6
491,USA,AL,Lowndes County,Fort Deposit,Fort Deposit-lowndes County,,,K67A,31.97237083,-86.59164139,149.4
492,USA,AL,DeKalb County,Fort Payne|Wills Valley,Isbell Field AP,,,K4A9,34.47369444,-85.72138889,267.0
493,USA,AL,Dale County,Fort Rucker/ozark|Kelly,Knox Ahp,,,KFHK,31.31683833,-85.66660194,68.6
494,USA,AL,Dale County,Fort Rucker|Ft Rucker|Ozark|Daleville,Cairns AAF,,,KOZR,31.275667,-85.713333,91.7
495,USA,AL,Dale County,Fort Rucker|Holiday Village,Lowe AHP,,,KLOR,31.35583333,-85.75116667,89.6
496,USA,AL,Etowah County,Gadsden|Siberton,Gadsden Muni AP,,,KGAD,33.97265,-86.089083,173.4
497,USA,AL,Geneva County,Geneva,Geneva Muni,,,K33J,31.05252778,-85.86897222,30.5
498,USA,AL,Hale County,Greensboro,Greensboro Muni,,,K7A0,32.68147222,-87.66208333,53.3
499,USA,AL,Butler County,Greenville,Mac Crenshaw Memorial AP,,,KPRN,31.845694,-86.61075,137.5
500,USA,AL,Clarke County,Grove Hill,Grove Hill Muni,,,K3A0,31.68932389,-87.7613875,145.7
501,USA,AL,Baldwin County,Gulf Shores|Bay Village Mobile Home Park,Jack Edwards AP,,,KJKA,30.289639,-87.671778,5.2
502,USA,AL,Marshall County,Guntersville|Buck Island Shores,Guntersville Muni - Joe Starnes Field,,,K8A1,34.39943611,-86.27018056,187.1
503,USA,AL,Winston County,Haleyville|Martintown,Posey Field AP,,,K1M4,34.28033333,-87.60041667,283.2
504,USA,AL,Morgan County,Hartselle|Tanner Heights,Hartselle-morgan County Regional,,,K5M0,34.40823444,-86.93295056,191.4
505,USA,AL,Madison County,Hazel Green|Five Points,Hazel Green,,,KM38,34.916,-86.64711111,248.1
506,USA,AL,Henry County,Headland|Walden Pond Estates,Headland Muni,,,K0J6,31.36413639,-85.31168333,109.1
507,USA,AL,Madison County,Huntsville|Meridianville,Huntsville Executive AP|Tom Sharp Jr Field|Huntsville AP,,,KMDQ,34.859361,-86.557528,232.6
508,USA,AL,Madison County,Huntsville|Moontown,Moontown,,,K3M5,34.7473125,-86.4613775,199.6
509,USA,AL,Madison County,Huntsville|New Haven,Huntsville International AP & Carl T Jones Field,,,KHSV,34.637194,-86.775056,191.4
511,USA,AL,Clarke County,Jackson,Jackson Muni,,,K4R3,31.47055972,-87.89590139,18.9
512,USA,AL,Walker County,Jasper|Manchester,Walker County AP & Bevill Field,,,KJFX,33.902,-87.313833,146.9
513,USA,AL,Chambers County,Lanett|Nelson,Lanett Muni,,,K7A3,32.81204611,-85.22958111,190.2
514,USA,AL,Marengo County,Linden|Hugo,Freddie Jones Field,,,K70A,32.26713889,-87.71827778,49.1
515,USA,AL,Crenshaw County,Luverne,Frank Sikes,,,K04A,31.73613889,-86.26222222,92.1
516,USA,AL,Marion County,Marion County Rankin Fite|Hamilton,Marion County Rankin Fite AP,,,KHAB,34.116944,-87.998222,132.9
517,USA,AL,Perry County,Marion|Vaiden,Vaiden Field,,,KA08,32.51052778,-87.38472222,67.1
518,USA,AL,Talladega County,Merkel Field Sylacauga Municipal|Gantts Junction,Merkel Field Sylacauga Municipal AP,,,KSCD,33.171833,-86.305528,173.1
519,USA,AL,Mobile County,Mobile|Curve Mobile Home Park,Downtown AP|Brookley AFB,,,KBFM,30.626778,-88.068083,7.9
520,USA,AL,Mobile County,Mobile|Park Place of West Mobile Trailer Park,Bates Field,,,KMOB,30.691417,-88.242833,66.4
521,USA,AL,Monroe County,Monroeville|Ollie,Monroe County AP,,,KMVC,31.458056,-87.351028,127.7
522,USA,AL,Montgomery County,Montgomery|Brickdale Estates,Maxwell AFB | Gunter AFB,,,KMXF,32.382944,-86.365778,51.8
523,USA,AL,Montgomery County,Montgomery|McGehees,Montgomery Regional AP|Dannelly Field,,,KMGM,32.300639,-86.393972,67.4
524,USA,AL,Hale County,Moundville|Powers,Moundville,,,KL44,32.96818028,-87.64056333,49.4
525,USA,AL,Colbert County,Muscle Shoals|Detroit Park,Regional,,,KMSL,34.745306,-87.610222,167.6
526,USA,AL,Blount County,Oneonta|Taits Gap,Robbins Field,,,K20A,33.97105556,-86.38030556,342.6
527,USA,AL,Dale County,Ozark,Blackwell Field,,,K71J,31.431812,-85.62053392,108.8
528,USA,AL,Dale County,Ozark|Kelly,Hanchey AHP,,,KHEY,31.355722,-85.651675,96.6
529,USA,AL,Saint Clair County,Pell City|Cropwell,St Clair County AP,,,KPLR,33.558833,-86.249056,147.8
530,USA,AL,Wilcox County,Pine Hill,Pine Hill Muni,,,K71A,31.96875,-87.59572222,37.5
531,USA,AL,Autauga County,Prattville|W C Rices Trailer Park,Prattville - Grouby Field,,,K1A9,32.43872222,-86.51269444,68.3
532,USA,AL,-,Redstone Arsnl Huntsville,Redstone Aaf,ADD/20170302.,,KHUA,34.678656,-86.684783,208.8
533,USA,AL,Pickens County,Reform,North Pickens,,,K3M8,33.38675278,-88.00657917,71.9
534,USA,AL,Randolph County,Roanoke,Roanoke Muni,,,K7A5,33.12928722,-85.366615,276.5
535,USA,AL,Franklin County,Russellville|Isbell,Russellville Muni,,,KM22,34.44507778,-87.71162361,218.5
536,USA,AL,Geneva County,Samson,Logan Field,,,K1A4,31.10277778,-86.06222222,61.0
537,USA,AL,Coffee County,Schell|Boland Acres,AHP,,,KSXS,31.36266944,-85.84938333,121.9
538,USA,AL,Jackson County,Scottsboro|Webb Addition,Scottsboro Muni-word Field,,,K4A6,34.68871111,-86.005925,198.1
539,USA,AL,Dallas County,Selma|Beloit,Skyharbor,,,KS63,32.36680417,-87.1041575,38.1
540,USA,AL,Dallas County,Selma|Brantley,Selfield,,,KSES,32.44,-86.95,41.5
541,USA,AL,Dallas County,Selma|Selmont-West Selmont,Craig Field | Craig AFB,,,KSEM,32.343947,-86.987806,50.6
542,USA,AL,Mobile County,St Elmo|Saint Elmo,St Elmo,,,K2R5,30.50191667,-88.27511111,40.2
543,USA,AL,Jackson County,Stevenson|Haynes Crossing,Stevenson,,,K7A6,34.88627639,-85.80328889,196.3
544,USA,AL,Baldwin County,Stockton|Vaughn,Hubbard Landing,,,KHL2,31.06361111,-87.87,2.4
545,USA,AL,Baldwin County,Summerdale|Vick's Mobile Home Park,Summerdale NOLF,,,KNFD,30.507695,-87.64554111,39.6
546,USA,AL,Talladega County,Talladega|Old Eastaboga,Talladega Muni AP,,,KASN,33.569506,-86.051203,160.9
547,USA,AL,Tallapoosa County,Tallassee|Buckville,Reeves,,,K41A,32.51494444,-85.87619444,99.4
548,USA,AL,Pike County,Troy|North Ridge Mobile Home Park,Troy Muni AP,,,KTOI,31.86,-86.013889,121.0
549,USA,AL,Tuscaloosa County,Tuscaloosa|Carter Subdivision,Municipal AP | Tuscaloosa AP,,,KTCL,33.220628,-87.611403,51.5
550,USA,AL,Macon County,Tuskegee,Moton Field Municipal AP,,,K06A,32.46047222,-85.68002778,80.5
551,USA,AL,Bullock County,Union Springs|Thompson,Franklin Field,,,K07A,32.16681389,-85.809675,91.4
552,USA,AL,Lamar County,Vernon|Moscow,Lamar County,,,KM55,33.84671889,-88.11547583,141.1
553,USA,AL,Calhoun County,Weaver|Lenlock,Mcminn,,,K25A,33.74,-85.82580556,207.3
554,USA,AL,Elmore County,Wetumpka|Elmore,Wetumpka Muni,,,K08A,32.52943944,-86.32822139,60.0
555,USA,Alaska,-,Crooked Creek,Donlin,ADD/20180815,,PFCR,62.032478,-158.236406,155.0
556,USA,Alaska,-,Nunapitchuk,Nunapitchuk,ADD/20180815,,PPIT,60.906,-162.440583,12.0
557,USA,Alaska,-,Takotna,Takotna,ADD/20180815,,PPCT,62.992944,-156.029722,123.0
558,USA,AR,Arkansas County,Almyra|Holdridge,Almyra Muni,,,KM73,34.41232833,-91.46634722,64.0
559,USA,AR,Clark County,Arkadelphia,Arkadelphia,,,KADF,34.099806,-93.066083,55.2
560,USA,AR,Clark County,Arkadelphia,Arkadelphia,,,KM89,34.09980556,-93.06608333,55.5
561,USA,AR,Sharp County,Ash Flat|Highland,Sharp County Regional AP,,,KCVK,36.264889,-91.562667,218.5
562,USA,AR,Woodruff County,Augusta|Cavell,Woodruff County,,,KM60,35.27189694,-91.26965556,61.0
563,USA,AR,White County,Bald Knob,Bald Knob Muni,,,KM74,35.29947222,-91.55769444,64.6
564,USA,AR,Independence County,Batesville|Clearview Estates,Batesville,,,KBVX,35.726222,-91.647444,141.7
565,USA,AR,Benton County,Bentonville,Bentonville,,,KVBT,36.34525,-94.219336,395.6
566,USA,AR,Saline County,Bentonville|Bryant,Saline County Regional AP,,,KSUZ,34.590389,-92.479444,118.6
567,USA,AR,Carroll,Berryville,Trigger Gap,ADD/20180815.,,K17A,36.32778,-93.62194,502.9
568,USA,AR,Carroll County,Berryville|Pleasant Valley,Carroll County,,,K4M1,36.38133333,-93.62455556,367.3
569,USA,AR,Mississippi County,Blytheville|Burton,Blytheville Municipal AP,,,KHKA,35.940417,-89.830806,77.7
570,USA,AR,Mississippi County,Blytheville|North Sabie (historical),Arkansas International AP|Eaker AFB ( -1992),,,KBYH,35.964333,-89.943944,77.4
571,USA,AR,Logan County,Booneville|Cauthron,Booneville Muni,,,K4M2,35.14951111,-93.86214167,142.3
572,USA,AR,Izard County,Calico Rock|Pineville,Calico Rock-izard County,,,K37T,36.16452778,-92.14447222,223.4
573,USA,AR,Ouachita County,Camden|Camark,Harrell Field,,,KCDH,33.622806,-92.763389,39.3
575,USA,AR,Lonoke County,Carlisle|Prairie Center,Carlisle Muni,,,K4M3,34.80822222,-91.71211111,73.2
576,USA,AR,Monroe County,Clarendon|Roe,Clarendon Muni,,,K4M8,34.64797361,-91.39443806,66.1
577,USA,AR,Johnson County,Clarksville,Clarksville Muni,,,KH35,35.47069417,-93.427155,146.3
578,USA,AR,Van Buren County,Clinton,Clinton Municipal AP,,,KCCA,35.59775,-92.451583,156.4
579,USA,AR,Van Buren County,Clinton|Banner (historical),Holley Mountain Airpark,,,K2A2,35.65071903,-92.40381294,386.8
580,USA,AR,Saint Francis,Colt,Delta Rgnl,ADD/20141229.,,KDRP,35.120056,-90.8265,72.5
581,USA,AR,Faulkner County,Conway,Dennis F Cantrell Field AP,,,KCWS,35.08080778,-92.42496167,96.3
582,USA,AR,Faulkner,Conway,Cantrell Fld,ADD/20141229.,,KCXW,35.019889,-92.555111,84.1
583,USA,AR,Faulkner County,Conway|Linder,Arkavalley,,,K12A,35.17752961,-92.33506697,100.3
584,USA,AR,Clay County,Corning|Twin Oaks,Corning Muni,,,K4M9,36.40423139,-90.64792639,89.3
585,USA,AR,Ashley County,Crossett|Bovine,Z M Jack Stell Field AP,,,KCRT,33.178333,-91.880194,55.8
586,USA,AR,Yell County,Danville|Corinth,Danville Muni,,,K32A,35.08695667,-93.42751778,119.5
587,USA,AR,Sevier County,De Queen|Chapel Hill,Helms,,,KDEQ,34.047,-94.399361,107.9
588,USA,AR,Arkansas County,De Witt|Prairie Union,De Witt Muni,,,K5M1,34.26228306,-91.30748667,57.3
589,USA,AR,Benton County,Decatur,Crystal Lake,,,K5M5,36.34355556,-94.44480833,358.8
590,USA,AR,Chicot County,Dermott|Decker (historical),Dermott Muni,,,K4M5,33.48795333,-91.44261139,41.1
591,USA,AR,Desha County,Dumas,Billy Free Muni,,,K0M0,33.88475278,-91.534525,50.0
592,USA,AR,Union County,El Dorado,El Dorado Downtown-stevens Field,,,KF43,33.19125,-92.66322222,78.0
593,USA,AR,Union County,El Dorado|Cairo,Goodwin AF,,,KELD,33.221239,-92.81175,84.1
594,USA,AR,Benton County,Fayetteville|Castleville (historical),Northwest Arkansas Regional AP,,,KXNA,36.281578,-94.307767,392.6
595,USA,AR,Washington County,Fayetteville|Greenland,Drake Field,,,KFYV,36.005083,-94.170056,381.6
596,USA,AR,Marion County,Flippin,Flippin,,,KFLP,36.290889,-92.59025,219.2
597,USA,AR,Cleveland County,Fordyce|Meek (historical),Fordyce Muni,,,K5M4,33.84579222,-92.36552889,58.8
598,USA,AR,Saint Francis County,Forrest City|Heustess,Forrest City Municipal AP,,,KFCY,34.941997,-90.774967,75.9
599,USA,AR,Sebastian County,Fort Chaffee|Burnville,Fort Chaffee,,,KQCU,35.1667,-94.2,192.0
600,USA,AR,Sebastian County,Fort Chaffee|Carnis,Arrowhead Assault Strip,,,KAZU,35.27509167,-94.22520944,239.3
601,USA,AR,Sebastian County,Fort Smith|Massard,Fort Smith Muni AP,,,KFSM,35.336583,-94.367444,143.0
602,USA,AR,Clark County,Gurdon,Gurdon Lowe Field,,,K5M8,33.92377778,-93.16813889,69.8
603,USA,AR,Calhoun County,Hampton,Hampton Muni,,,K0R6,33.52261111,-92.46027778,54.3
604,USA,AR,Boone County,Harrison|Francis,Boone County,,,KHRO,36.261528,-93.154722,415.8
605,USA,AR,Prairie County,Hazen|Cuneo (historical),Hazen Muni,,,K6M0,34.75921389,-91.63804583,70.1
606,USA,AR,Cleburne County,Heber Springs,Heber Springs Municipal AP,,,KHBZ,35.511689,-92.013008,192.6
607,USA,AR,Phillips County,Helena | West Helena|Southland,Thompson-Robbins AP,,,KHEE,34.5765,-90.675889,73.5
608,USA,AR,Monroe County,Holly Grove,Holly Grove Muni,,,K2A6,34.58244444,-91.16522222,53.6
609,USA,AR,Hempstead County,Hope|Dolph (historical),Hope Muni,,,KM18,33.72011111,-93.65886111,109.4
610,USA,AR,Izard County,Horseshoe Bend,Horseshoe Bend,,,K6M2,36.22136944,-91.75548333,238.1
611,USA,AR,Garland County,Hot Springs|Rockwell,Hot Springs Memorial AP | McLaughlin AP,,,KHOT,34.478028,-93.096222,164.6
612,USA,AR,Madison County,Huntsville,Huntsville Muni,,,KH34,36.078215,-93.75483111,532.5
613,USA,AR,Craighead County,Jonesboro|Doss (historical),Jonesboro Municipal AP,,,KJBR,35.831722,-90.646417,79.9
614,USA,AR,Chicot County,Lake Village|Bayou Macon (historical),Lake Village Muni,,,KM32,33.3459775,-91.31569833,38.4
615,USA,AR,Baxter County,Lakeview|Amos,Gastons,,,K3M0,36.34867861,-92.5571075,146.0
616,USA,AR,Pulaski County,Little Rock|Jacksonville|Macon,Little Rock AFB,,,KLRF,34.917511,-92.145,94.8
617,USA,AR,Pulaski County,Little Rock|Oak Grove,Robinson Army Airfield & Robinson National Guard AP & Camp Robinson,,,KRBM,34.850089,-92.300153,182.3
618,USA,AR,Pulaski County,Little Rock|Picron,Adams Field,,,KLIT,34.729444,-92.224778,81.1
619,USA,AR,Columbia County,Magnolia|Walker,Magnolia Muni AP,,,KAGO,33.227472,-93.217,97.2
620,USA,AR,Hot Spring County,Malvern|Harp,Malvern Muni,,,KM78,34.33331583,-92.76149944,164.0
621,USA,AR,Mississippi County,Manila,Manila Municipal AP,,,KMXA,35.894444,-90.154583,73.8
622,USA,AR,Lee County,Marianna|Felton,Marianna/lee County-steve Edwards Field,,,K6M7,34.78275164,-90.80996283,66.8
623,USA,AR,Poinsett County,Marked Tree,Marked Tree Muni,,,K6M8,35.53555556,-90.4,66.8
624,USA,AR,Searcy County,Marshall|Jameson (historical),Searcy County,,,K4A5,35.89698611,-92.65895556,293.5
625,USA,AR,Woodruff County,Mc Crory|Morton,Mc Crory/morton,,,K7M0,35.22841667,-91.09316667,67.7
626,USA,AR,Desha County,Mc Gehee|McGehee,Mc Gehee Muni,,,K7M1,33.62022111,-91.36484056,43.0
627,USA,AR,Izard County,Melbourne|LaCrosse,Melbourne Muni - John E Miller Field,,,K42A,36.07098333,-91.83013611,223.7
628,USA,AR,Polk County,Mena|Dallas,Intermountain Municipal AP,,,KMEZ,34.545389,-94.202639,328.9
629,USA,AR,Drew County,Monticello|Killin,Monticello Municipal AP | Ellis Field,,,KLLQ,33.638556,-91.751,81.4
630,USA,AR,Conway County,Morrilton|Deerwood,Morrilton Municipal AP,,,KBDQ,35.136194,-92.713497,97.8
631,USA,AR,Conway County,Morrilton|Winrock,Petit Jean Park AP,,,KMPJ,35.138833,-92.909194,281.3
632,USA,AR,Montgomery,Mount Ida,Bearce,ADD/20200618.,,K7M3,34.52908,-93.52942,196.3
633,USA,AR,Montgomery County,Mount Ida|Silver,Bearce,,,KMWT,34.52908111,-93.52942417,196.3
634,USA,AR,Baxter County,Mountain Home|Midway,Baxter,,,KBPK,36.368942,-92.470528,282.9
635,USA,AR,Stone County,Mountain View,Mountain View Wilcox Memorial Field,,,K7M2,35.86448028,-92.09033861,245.4
636,USA,AR,Howard County,Nashville|Pump Springs (historical),Howard County,,,KM77,33.99675,-93.83819444,168.6
637,USA,AR,Jackson County,Newport|Airport Village,Newport Municipal AP|Newport MCAF (1940s)|Newport AAF (1940s),,,KM19,35.63772222,-91.17638889,72.5
638,USA,AR,Pulaski County,North Little Rock|Sylvan Hills,North Little Rock NWSFO|North Little Rock Muni AP,,,KLZK,34.835,-92.25944444,173.2
639,USA,AR,Pulaski County,North Little Rock|Tanglewood,North Little Rock Municipal AP,,,KORK,34.833139,-92.254139,166.1
640,USA,AR,Mississippi County,Osceola,Osceola Muni,,,K7M4,35.69114639,-90.01012028,71.3
641,USA,AR,Franklin County,Ozark,Ozark-franklin County,,,K7M5,35.51069583,-93.8393075,197.5
642,USA,AR,Greene County,Paragould,Kirk Field AP,,,KPGR,36.063806,-90.509194,88.4
643,USA,AR,Logan County,Paris /subiaco/|Union,Paris Muni,,,K7M6,35.29902222,-93.68167778,131.1
644,USA,AR,Clay County,Piggott|Trinnon,Piggott Muni,,,K7M7,36.37820556,-90.16624167,83.8
645,USA,AR,Jefferson County,Pine Bluff|Ladd,Grider Field,,,KPBF,34.174514,-91.935606,62.5
646,USA,AR,Randolph County,Pocahontas|East Pocahontas,Pocahontas Muni,,,KM70,36.24551111,-90.95520444,83.2
647,USA,AR,Nevada County,Prescott,Kizer Field,,,K4F7,33.80388889,-93.36216667,96.9
648,USA,AR,Greene County,Rector|Dixie,Rector,,,K7M8,36.25006306,-90.31954556,85.6
649,USA,AR,Benton County,Rogers|Pleasant Hill,Rogers,,,KROG,36.372417,-94.106972,413.9
650,USA,AR,Pope County,Russellville|Bethel,Russellville Regional AP,,,KRUE,35.259283,-93.092622,124.7
651,USA,AR,Fulton County,Salem,Salem,,,K7M9,36.35590806,-91.83095472,239.6
652,USA,AR,White County,Searcy|Gum Springs (historical),Searcy Municipal AP,,,KSRC,35.210611,-91.737539,80.5
653,USA,AR,Grant County,Sheridan|Ebb,Sheridan Muni,,,K9M8,34.32842917,-92.35098583,71.9
654,USA,AR,Jefferson County,Sherrill,Smith's Intl,,,K99A,34.40622222,-91.95875,66.4
655,USA,AR,Benton County,Siloam Springs|Lone Elm (historical),Siloam Springs,,,KSLG,36.191861,-94.49,363.0
656,USA,AR,Washington County,Springdale,Springdale Muni AP,,,KASG,36.176389,-94.11925,412.1
657,USA,AR,Lincoln County,Star City,Star City Muni,,,K55M,33.92641667,-91.86111111,121.3
658,USA,AR,Ouachita County,Stephens|Ogemaw,Wilson,,,K4F8,33.44319444,-93.05430556,70.1
659,USA,AR,Prairie County,Stuttgart|Fairmount,Municipal AP | Stuttgart AP,,,KSGT,34.599478,-91.575,68.3
660,USA,AR,Miller County,Texarkana|Rondo,Regional AP | Webb Field | Texarkana AP,,,KTXK,33.453708,-93.991019,118.6
661,USA,AR,Scott County,Waldron,Waldron Muni,,,KM27,34.87604167,-94.10930556,214.9
662,USA,AR,Lawrence County,Walnut Ridge|College City,Regional AP | Walnut Ridge AP,,,KARG,36.124664,-90.9251,85.0
663,USA,AR,Bradley County,Warren|Carmel,Warren Muni,,,K3M9,33.56044333,-92.08538861,71.6
664,USA,AR,Poinsett County,Weiner|Waldenburg,Sally Wofford,,,K8M2,35.59027222,-90.91367222,74.7
665,USA,AR,Crittenden County,West Memphis|Riceville,West Memphis Muni AP,,,KAWM,35.135056,-90.234444,64.6
666,USA,AR,Cross County,Wynne,Wynne Muni,,,KM65,35.23160167,-90.76155111,112.8
667,USA,AZ,Pima County,Ajo|Childs,Municipal AP | Ajo AAF,,,KP01,32.45288889,-112.8614167,444.4
668,USA,AZ,Yavapai County,Bagdad,Bagdad,,,KE51,34.59585278,-113.170195,1278.7
669,USA,AZ,Cochise County,Benson|Chamiso,Benson Muni,,,KE95,31.99944444,-110.3579722,1167.4
670,USA,AZ,Cochise County,Bisbee|Bisbee Junction,Bisbee Muni,,,KP04,31.36399028,-109.8831286,1457.0
671,USA,AZ,Maricopa County,Buckeye|Conger,Buckeye Muni AP,,,KBXK,33.420417,-112.686181,314.6
672,USA,AZ,Mohave County,Bullhead City,Bullhead City,,,KIFP,35.154611,-114.559333,215.5
673,USA,AZ,Mohave County,Bullhead City|Mesquite Creek,Sun Valley,,,KA20,35.00563889,-114.5650278,221.0
674,USA,AZ,Mohave County,Bullhead City|Willow Valley,Eagle Airpark,,,KA09,34.88816667,-114.6166389,147.8
675,USA,AZ,Pinal County,Casa Grande,Casa Grande,,,KCGZ,32.954889,-111.766833,446.2
676,USA,AZ,Maricopa County,Chandler|Germann,Phoenix-Mesa Gateway AP | Williams Gateway AP | Williams AFB,,,KIWA,33.307833,-111.655472,421.8
677,USA,AZ,Maricopa County,Chandler|Hightown,Stellar Airpark,,,KP19,33.29887625,-111.9154368,359.1
678,USA,AZ,Maricopa County,Chandler|Rancho de Chandler,Chandler Muni AP,,,KCHD,33.269111,-111.811111,378.9
679,USA,AZ,Apache County,Chinle,Chinle Muni,,,KE91,36.11088056,-109.5754222,1691.7
680,USA,AZ,Greenlee,Clifton,Double Circle Ranch,ADD/20161229.,,KZ66,33.34055,-109.49447,1482.3
681,USA,AZ,Greenlee County,Clifton | Morenci|Three Way,Greenlee County AP,,,KCFT,32.957039,-109.211161,1157.3
682,USA,AZ,Mohave County,Colorado City|Centennial Park,Colorado City Muni AP,,,KAZC,36.959944,-113.013889,1485.3
683,USA,AZ,Pinal County,Coolidge|Valley Farms,Coolidge AP | Coolidge AAF ( -1945),,,KP08,32.93594444,-111.4265278,480.4
684,USA,AZ,Yavapai County,Cottonwood|Clemenceau,Cottonwood,ADD/20110209.,,KP52,34.73006,-112.03511,1085.1
685,USA,AZ,Cochise County,Douglas|Double Adobe,Bisbee-Douglas International AP | Douglas AAF,,,KDUG,31.468944,-109.60375,1264.9
686,USA,AZ,Cochise County,Douglas|Forrest,Cochise College,,,KP03,31.37108333,-109.6903611,1263.7
687,USA,AZ,Cochise County,Douglas|Sunspots South Mobile Home Park,Douglas Municipal AP,,,KDGL,31.342603,-109.506456,1271.9
688,USA,AZ,Pinal,Eloy,Eloy Farms Airstrip,ADD/20161229.,,KEE0,32.6895,-111.54932,474.0
689,USA,AZ,Pinal County,Eloy|Toltec,Eloy Muni,,,KE60,32.80675,-111.5866389,460.6
690,USA,AZ,Coconino County,Flagstaff|Bellemont,WFO,,,KFGZ,35.23,-111.8216667,2179.0
691,USA,AZ,Coconino County,Flagstaff|Fort Tuthill,Pulliam Arpt,,,KFLG,35.140317,-111.669242,2137.9
692,USA,AZ,Cochise County,Fort Huachuca|Miles Manor,Libby AAF,,,KFHU,31.588472,-110.344389,1438.4
693,USA,AZ,Navajo County,Ft Apache|Fort Apache,Whiteriver Field | Ft Apache Synoptic Site,,,KE24,33.81060833,-109.9857436,1570.7
694,USA,AZ,Maricopa,Gila Bend,Williams Aux Afld 6,ADD/20161229.,,KGAX,32.88525,-112.81631,245.7
695,USA,AZ,Maricopa County,Gila Bend,Gila Bend AF Aux | Gila Bend AAF,WMODISTDIFF1 (31.455557281541 nm) [74724] 32.4333333333333 -112.683333333333 ,,KGBN,32.88754667,-112.719885,269.1
696,USA,AZ,Maricopa County,Gila Bend,Gila Bend AF Aux,ADD/20130801.,,KGXF,32.885,-112.720556,269.1
697,USA,AZ,Maricopa County,Gila Bend|San Lucy Village,Gila Bend Muni AP,,,KE63,32.96016944,-112.6736375,240.2
698,USA,AZ,Maricopa County,Glendale|Country Greens at Villa de Paz,Glendale AP,,,KGEU,33.526917,-112.295139,326.4
699,USA,AZ,Gila County,Globe|Cutter,San Carlos Apache,,,KP13,33.35313889,-110.6673611,993.7
700,USA,AZ,Coconino County,Grand Canyon Park|Tusayan,Grand Canyon Park AP,,,KGCN,35.952361,-112.146972,2014.1
702,USA,AZ,Navajo County,Holbrook|Lisitzky Subdivision,Holbrook Muni,,,KP14,34.94052778,-110.1382222,1603.6
703,USA,AZ,Navajo County,Kayenta,Kayenta,,,K0V7,36.71491667,-110.2319722,1733.4
704,USA,AZ,Pinal County,Kearny|Branaman,Kearny,,,KE67,33.04719444,-110.9090556,558.7
705,USA,AZ,Mohave County,Kingman|Berry,Kingman AP,,,KIGM,35.259472,-113.938056,1051.0
706,USA,AZ,Mohave County,Lake Havasu|Desert Hills,Lake Havasu City AP,,,KHII,34.571111,-114.358278,238.4
707,USA,AZ,Coconino County,Marble Canyon,Marble Canyon,,,KL41,36.81080556,-111.6444444,1098.2
708,USA,AZ,Pinal County,Maricopa|Heaton,Estrella Sailport,,,KE68,33.08532667,-112.1609794,388.0
709,USA,AZ,Mohave County,Meadview|South Cove,Pearce Ferry,,,KL25,36.09322222,-114.0467222,896.4
710,USA,AZ,Maricopa County,Mesa|Apache Wells,Falcon Field,,,KFFZ,33.460833,-111.728333,424.9
711,USA,AZ,Santa Cruz County,Nogales|Beyerville,Nogales,New identifier.,,KOLS,31.417722,-110.847889,1205.5
712,USA,AZ,Coconino County,Page,Page Muni AP,,,KPGA,36.926083,-111.448361,1315.5
713,USA,AZ,La Paz County,Parker,Avi Suquilla,,,KP20,34.149825,-114.2678417,139.6
714,USA,AZ,Gila County,Payson|Fort McDonald,Payson AP,,,KPAN,34.256836,-111.339256,1571.6
715,USA,AZ,Coconino County,Peach Springs|Grand Canyon Caverns,Grand Canyon Caverns,,,KL37,35.527,-113.2474167,1645.0
716,USA,AZ,Mohave County,Peach Springs|Meadview,Grand Canyon West,,,K1G4,35.99037722,-113.8164239,1467.9
717,USA,AZ,Maricopa County,Peoria|Anthem,Pleasant Valley,,,KP48,33.80059111,-112.2507153,481.6
718,USA,AZ,Maricopa,Phoenix,Banner Estrella Medica Center,ADD/20161229.,,KBE1,33.47903,-112.25678,316.1
719,USA,AZ,Maricopa County,Phoenix|A-1 Trailer Park,Sky Harbor International AP,,,KPHX,33.434278,-112.011583,345.6
720,USA,AZ,Maricopa County,Phoenix|A-1 Trailer Park,WSFO,,,KPSR,33.4333,-112.0167,338.0
721,USA,AZ,Pinal County,Phoenix|Bon,Phoenix Rgnl,,,KA39,32.99080556,-111.9185278,398.4
722,USA,AZ,Maricopa County,Phoenix|Germann,WSFO,,,KSRP,33.2833,-111.6667,403.0
723,USA,AZ,Maricopa County,Phoenix|Glendale|Webb,Luke AFB | Luke Field,,,KLUF,33.534978,-112.383178,330.7
724,USA,AZ,Maricopa County,Phoenix|Litchfield Junction,Goodyear AP [Litchfield Park NAF],,,KGYR,33.423278,-112.375361,295.4
725,USA,AZ,Maricopa County,Phoenix|Papago Peaks Village,Papago AHP,,,KP18,33.47198833,-111.9637567,381.0
726,USA,AZ,Maricopa County,Phoenix|Rancho Hermoso,Maricopa Medical Center,,,K20E,33.45643278,-112.0243133,340.5
727,USA,AZ,Maricopa County,Phoenix|Wild Flower,Deer Valley,,,KDVT,33.688306,-112.082556,450.5
728,USA,AZ,Pinal County,Picacho|Wymola,Picacho Stagefield Heliport,,,KPCA,32.65833333,-111.475,508.4
729,USA,AZ,Graham County,Pima|Dublin,Flying J Ranch,,,KE37,32.84784333,-109.8817481,949.2
730,USA,AZ,Navajo County,Polacca|Walpi,Polacca,,,KP10,35.79161111,-110.4233889,1698.7
731,USA,AZ,Yavapai County,Prescott|Tutt,Municipal AP | Ernest A Love AP,,,KPRC,34.654833,-112.419222,1537.7
732,USA,AZ,Graham County,Safford|Solomon,Safford Muni AP,,,KSAD,32.853333,-109.635083,968.7
735,USA,AZ,-,San Luis|Rancho Las Delicias,Rolle Airfield,,,K44A,32.51630556,-114.6983889,49.7
736,USA,AZ,Pinal County,San Manuel,San Manuel,,,KE77,32.63641667,-110.6472778,997.0
737,USA,AZ,Maricopa County,Scottsdale|Country Trace,Scottsdale Muni AP,,,KSDL,33.622889,-111.910528,460.3
738,USA,AZ,Yavapai County,Sedona|West Sedona,Sedona AP,,,KSEZ,34.848583,-111.788444,1472.2
739,USA,AZ,Yavapai County,Seligman,Seligman,,,KP23,35.33491667,-112.88625,1596.3
740,USA,AZ,Pima County,Sells,Sells,,,KE78,31.93258333,-111.89425,734.3
741,USA,AZ,Navajo County,Show Low,Show Low Muni AP,,,KSOW,34.265472,-110.005667,1955.3
742,USA,AZ,Apache,Springerville,Springerville Muni,ADD/20141229.,,KJTC,34.129417,-109.310861,2150.4
743,USA,AZ,Apache County,St Johns|Saint Johns,Air Park,,,KSJN,34.518556,-109.37875,1748.4
744,USA,AZ,Pinal County,Superior,Superior Muni AP,,,KE81,33.27783389,-111.127065,806.5
745,USA,AZ,Navajo County,Taylor,Taylor AP,,,KTYL,34.452722,-110.115028,1774.9
746,USA,AZ,Mohave County,Temple Bar|Bonelli Landing,Temple Bar,,,KU30,36.02044444,-114.3349167,472.1
747,USA,AZ,Cochise County,Tombstone,Tombstone Muni,,,KP29,31.67130556,-110.0215278,1445.7
750,USA,AZ,Coconino County,Tuba City|Moenave,Tuba City,,,KT03,36.09263889,-111.3830833,1375.6
751,USA,AZ,Pima County,Tucson|Dobson,Pinal Airpark|Marana AAF (1940s to 1996),,,KMZJ,32.509833,-111.325333,577.0
752,USA,AZ,Pima County,Tucson|Las Palmes Mobile Home Park,International AP,,,KTUS,32.116069,-110.941014,805.6
753,USA,AZ,Pima County,Tucson|Marana,Marana Rgl AP|Marana Airpark,,,KAVQ,32.409556,-111.218389,619.1
754,USA,AZ,Pima County,Tucson|Polo Village,WFO,,,KTWC,32.2333,-110.95,757.0
755,USA,AZ,Pima County,Tucson|Valencia West,Ryan Fld Arpt,,,KRYN,32.142222,-111.174583,737.0
756,USA,AZ,Pima County,Tucson|Vandenberg Village,Davis-Monthan AFB,Davis Monthan AFB FAA LID changed from TUS to DMA sometime in 1950s or 1960s. Weather bureau was on west side of Davis Monthan AFB 1932 to 1948.,,KDMA,32.166364,-110.883172,824.2
757,USA,AZ,Coconino County,Valle,Valle,,,K40G,35.65,-112.15,1829.0
758,USA,AZ,Mohave County,Whitmore|Mount Trumbull,Grand Canyon Bar Ten Airstrip,,,K1Z1,36.2565,-113.2308889,1249.7
759,USA,AZ,Maricopa County,Wickenburg|Matthie,Wickenburg Muni,,,KE25,33.97063972,-112.7951471,724.8
760,USA,AZ,Cochise County,Willcox,Cochise County,,,KP33,32.24541667,-109.8946389,1276.2
761,USA,AZ,Coconino County,Williams,Clark Memorial AP,,,KCMR,35.3055,-112.194361,2039.1
762,USA,AZ,McKinley County,Window Rock|Tse Bonito,Window Rock AP,,,KRQE,35.652056,-109.067389,2055.0
763,USA,AZ,Navajo County,Winslow,Winslow,,,KINW,35.021911,-110.722517,1506.0
764,USA,AZ,Yuma County,Yuma|Desert Royal Mobile Park,International AP | Yuma MCAS | Vincent AAF,Yuma MCAS.,,KNYL,32.656575,-114.605986,64.9
765,USA,AZ,Yuma County,Yuma|Desert Royal Mobile Park,International AP | Yuma MCAS | Vincent AAF,Yuma International Airport.,,KYUM,32.65,-114.6,62.8
766,USA,AZ,Yuma County,Yuma|Laguna,Laguna AAF | Yuma Proving Ground Airfield,,,KLGF,32.86,-114.396667,131.7
767,USA,CA,Modoc County,Adin,Adin,,,KA26,41.1865,-120.9543889,1290.5
768,USA,CA,San Diego County,Agua Caliente Springs|Mesquite Oasis,Agua Caliente,,,KL54,32.95569444,-116.2947222,371.9
769,USA,CA,Los Angeles County,Agua Dulce,Agua Dulce,,,KL70,34.50256944,-118.3146444,802.5
770,USA,CA,Modoc County,Alturas|California Pines,California Pines,,,KA24,41.41219444,-120.6840556,1337.8
771,USA,CA,Modoc County,Alturas|Juniper,Alturas Muni AP,,,KAAT,41.482861,-120.565417,1334.4
772,USA,CA,Napa County,Angwin|Veteran Heights,Angwin-parrett Field,,,K2O3,38.58002778,-122.4354722,571.5
773,USA,CA,San Bernardino County,Apple Valley|Bell Mountain,Apple Valley AP,,,KAPV,34.575333,-117.186194,933.0
774,USA,CA,Humboldt County,Arcata|Clam Beach,Arcata-Eureka AP|Arcata NAAS | Arcata Landing Aids Experimental Station,,,KACV,40.977833,-124.108472,67.7
775,USA,CA,Placer County,Auburn|Elders Corner,Austin Municipal AP,,,KAUN,38.954833,-121.081722,468.8
776,USA,CA,Los Angeles County,Avalon,Pebbly Beach,,,KL11,33.33836194,-118.3120164,0.0
777,USA,CA,Los Angeles County,Avalon|Two Harbors,Catalina AP,"CONFLICT with NCDC on WMO 72292, used for several stations. Am going with British assignment of AVX Avalon/Catalina.",,KAVX,33.404997,-118.415769,488.3
778,USA,CA,San Bernardino County,Baker,Baker AP,,,K0O2,35.28627778,-116.0813611,281.0
779,USA,CA,Kern County,Bakersfield|Oil Junction,Meadows Field AP|Kern County AP #1,,,KBFL,35.433861,-119.057667,155.1
780,USA,CA,Kern County,Bakersfield|Wible Orchard,Bakersfield Muni,,,KL45,35.32486111,-118.9960278,115.2
781,USA,CA,Riverside County,Banning,Banning Muni AP,,,KBNG,33.922556,-116.850972,677.3
782,USA,CA,Plumas County,Beckwourth|Hawley,Nervino,,,KO02,39.81852778,-120.3528333,1493.2
783,USA,CA,Riverside County,Bermuda Dunes|Myoma,Bermuda Dunes AP,,,KUDD,33.748439,-116.274814,22.3
784,USA,CA,Lassen County,Bieber,Southard Field,,,KO55,41.13955556,-121.1239722,1268.9
786,USA,CA,San Bernardino County,Big Bear City,Big Bear City,,,KL35,34.267,-116.85,2057.0
787,USA,CA,Inyo County,Bishop,Bishop AP,,,KBIH,37.373111,-118.363611,1257.0
788,USA,CA,Placer County,Blue Canyon,Emigrant Gap AP | Emigrant Gap Intermediate Field,,,KBLU,39.274972,-120.70975,1610.3
789,USA,CA,Riverside County,Blythe|Mesa Verde,AP [AAF?],,,KBLH,33.619167,-114.716889,121.6
790,USA,CA,Mendocino County,Boonville,Boonville,,,KD83,39.01391667,-123.3818611,115.2
791,USA,CA,San Diego County,Borrego Springs,Borrego Valley,,,KL08,33.25902778,-116.3209722,159.1
792,USA,CA,Imperial County,Brawley|Hovley,Brawley Muni AP,,,KBWC,32.992939,-115.517264,-38.7
793,USA,CA,Mono County,Bridgeport,Bryant Field,,,KO57,38.26411111,-119.2227222,1972.4
794,USA,CA,Mono County,Bridgeport|Sonora Junction,MCMWTC Bridgeport,,,KBAN,38.3557,-119.5188,2057.0
795,USA,CA,Yuba County,Brownsville|Aero Pines Mobile Home Park,Brownsville,,,KF25,39.45522222,-121.2916389,646.2
796,USA,CA,Los Angeles County,Burbank|Vega,Bob Hope AP [Burbank-Glendale-Pasadena AP] [Hollywood-Burbank AP] [Lockheed Air Terminal] [Union Air Terminal],,,KBUR,34.200694,-118.358667,237.1
797,USA,CA,Kern County,Buttonwillow,Elk Hills-buttonwillow,,,KL62,35.35344444,-119.4797222,99.4
798,USA,CA,Contra Costa County,Byron,Byron,,,KC83,37.82844444,-121.6258333,23.8
799,USA,CA,San Bernardino County,Cable Arpt|College Heights,Cable Arpt,,,KCCB,34.111611,-117.687389,439.8
800,USA,CA,Imperial County,Calexico,Calexico,,,KCXL,32.667444,-115.517583,1.5
801,USA,CA,Kern County,California City,California City Muni,,,KL71,35.15125,-118.0166667,747.7
802,USA,CA,Imperial County,Calipatria,Cliff Hatfield Memorial AP,,,KCLR,33.131333,-115.521389,-55.2
803,USA,CA,Ventura County,Camarillo|Springville,Camarillo,,,KCMA,34.21375,-119.094361,23.2
804,USA,CA,El Dorado County,Cameron Park|Cameron Airpark Estates,Cameron Airpark,,,KO61,38.684,-120.9875278,392.3
805,USA,CA,San Diego County,Campo,AWRS,,,KCZZ,32.6167,-116.4667,805.0
806,USA,CA,San Diego County,Carlsbad|Rancho Carlsbad Trailer Park,Palomar,,,KCRQ,33.12825,-117.280083,100.6
807,USA,CA,Los Angeles County,Carson,Carson Sheriff Station,,,K7L1,33.83418361,-118.2617378,5.2
808,USA,CA,Modoc County,Cedarville,Cedarville,,,KO59,41.55361111,-120.1656111,1409.1
809,USA,CA,San Bernardino County,Chemehuevi Valley|Havasu Lake,Chemehuevi Valley,,,K49X,34.52897222,-114.4320833,194.5
810,USA,CA,Plumas County,Chester,Usfs Chester,,,K5Q2,40.28849528,-121.2432983,1379.5
811,USA,CA,Plumas County,Chester,Rogers Field,,,KO05,40.28235278,-121.2411683,1382.0
812,USA,CA,Butte County,Chico,Chico AP|Chico AAF,,,KCIC,39.795389,-121.858417,73.2
813,USA,CA,San Bernardino County,China Lake|Copper City,Superior Valley Gunnery Range,,,KQCK,35.333,-117.1,956.0
814,USA,CA,San Bernardino County,Chino,Chino AP|Pacific Airmotive (1950s),,,KCNO,33.974781,-117.636483,198.1
815,USA,CA,Riverside County,Chiriaco Summit,Chiriaco Summit,,,KL77,33.66488889,-115.71,521.2
816,USA,CA,Madera County,Chowchilla,Chowchilla,,,K2O6,37.11327778,-120.2469444,74.1
817,USA,CA,Los Angeles County,City Of Industry|Rowland,L A County Sheriff's Department,,,K7L5,34.00417861,-117.9370075,99.7
818,USA,CA,Sonoma County,Cloverdale|Asti,Cloverdale Muni,,,KO60,38.77597147,-122.9924166,83.8
819,USA,CA,Fresno County,Coalinga|Ora,New Coalinga Muni,,,KC80,36.16313889,-120.2938139,190.2
820,USA,CA,Fresno County,Coalinga|Turk,Harris Ranch,,,K3O8,36.24811111,-120.2384722,143.3
821,USA,CA,Tuolumne County,Columbia,Columbia,,,K6Q0,38.034645,-120.4121394,646.8
822,USA,CA,Tuolumne County,Columbia|Springfield,Columbia,,,KO22,38.03042822,-120.4145538,646.2
823,USA,CA,Colusa County,Colusa|Arbee,Colusa County,,,KO08,39.17900053,-121.9933368,14.9
824,USA,CA,Los Angeles County,Compton,Compton/Woodley AP,,,KCPM,33.889917,-118.243806,29.9
825,USA,CA,Contra Costa County,Concord|Pacheco,Buchanan Field,Listed in 1949 CAA LID; still active.,,KCCR,37.989667,-122.056889,7.6
826,USA,CA,Kings County,Corcoran|Whitley Manor Mobile Home Park,Corcoran AP,,,KCRO,36.10263889,-119.5946667,60.0
827,USA,CA,Tehama County,Corning,Corning Muni,,,K0O4,39.94363889,-122.1711389,89.9
828,USA,CA,Riverside County,Corona,Corona Muni AP,,,KAJO,33.897653,-117.602439,162.5
829,USA,CA,Mendocino County,Covelo,Round Valley,,,KO09,39.7905,-123.2663333,437.1
830,USA,CA,Del Norte County,Crescent City|Crescent City North,Jack McNamara Field AP [Del Norte County AP],Crossreference with Del Norte Airport to site coordinates is suspected but not verified; in 1949 CAA LID CEC is Del Norte Airport.,,KCEC,41.780167,-124.236528,18.3
831,USA,CA,Stanislaus County,Crows Landing|Jet,Crows Landing NALF | Crows Landing AP,,,KNRC,37.40799056,-121.1093761,50.6
832,USA,CA,San Bernardino County,Daggett|Minneola,Barstow-Daggett AP | San Bernardino County AP,,,KDAG,34.853722,-116.786694,588.3
833,USA,CA,Solano County,Davis|Briggston (historical),University,,,KEDU,38.531461,-121.786481,20.7
834,USA,CA,Yolo County,Davis|Plainfield,Yolo County Woodland Winters,,,KDWA,38.579389,-121.856944,30.5
835,USA,CA,Inyo County,Death Valley National Park|Indian Village,Furnace Creek AP,,,KL06,36.4605,-116.8798056,-64.0
836,USA,CA,Inyo County,Death Valley National Park|Skidoo (historical),Stovepipe Wells,,,KL09,36.60383333,-117.1592222,7.6
837,USA,CA,Kern County,Delano|Delano Mobile Home Park,Delano Municipal AP,,,KDLO,35.745556,-119.2365,96.3
838,USA,CA,Humboldt County,Dinsmore,Dinsmore,,,KD63,40.49202778,-123.5982222,723.9
839,USA,CA,Siskiyou County,Dorris|Somerset,Butte Valley,,,KA32,41.88723611,-121.9755944,1293.3
840,USA,CA,Siskiyou County,Dunsmuir|Mott,Dunsmuir Municipal AP & Mott AP,,,K1O6,41.26305556,-122.2721111,994.0
841,USA,CA,Kern County,Edwards AFB|Muroc (historical),Weather Station,,,KEDW,34.918033,-117.87905,704.4
842,USA,CA,Kern County,Edwards AFB|North Edwards,North Base Airfield,Identifier is current as of 2009.,,K9L2,34.99080778,-117.8631214,700.7
843,USA,CA,Imperial County,El Centro|Seeley,El Centro NAF|Range One,,,KNJK,32.826633,-115.668561,-12.8
844,USA,CA,Los Angeles County,El Monte|Hayes,El Monte,,,KEMT,34.086008,-118.034844,89.9
845,USA,CA,Sacramento County,Elk Grove|Oo-moo-chah (historical),Elk Grove,,,KE27,38.39236111,-121.33075,16.5
846,USA,CA,Humboldt County,Eureka|Brainard,Municipal AP [Humboldt County AP],,,KEKA,40.803389,-124.112806,3.0
847,USA,CA,Humboldt County,Eureka|Fairhaven,Eureka Muni,,,KO33,40.78086111,-124.2122778,6.1
848,USA,CA,Humboldt County,Eureka|Maple Creek,Kneeland,,,KO19,40.71905556,-123.9272222,836.7
849,USA,CA,Tulare County,Exeter|Burr,Exeter,,,KO63,36.24247222,-119.1496944,104.9
850,USA,CA,Solano County,Fairfield|Travis Field,Travis AFB [Fairfield-Suisun AFB],,,KSUU,38.264536,-121.924131,19.2
851,USA,CA,Shasta County,Fall River Mills,Fall River Mills,,,KO89,41.01877417,-121.4333136,1014.4
852,USA,CA,San Diego County,Fallbrook|DeLuz,Fallbrook Community Airpark,,,KL18,33.35419806,-117.2508686,215.8
853,USA,CA,Kern County,Famoso,Poso-kern County,,,KL73,35.59638889,-119.1282778,193.6
854,USA,CA,Fresno County,Firebaugh,Firebaugh,,,KF34,36.85998861,-120.4644675,47.9
855,USA,CA,El Dorado County,Folsom|Lakeridge Oaks,Folsom Lake,,,KC39,38.70722222,-121.1333333,142.0
856,USA,CA,Modoc County,Fort Bidwell,Fort Bidwell,,,KA28,41.8765,-120.1466389,1407.0
857,USA,CA,San Bernardino County,Fort Irwin|Ft Irwin|Ft. Irwin|Barstow,Bicycle Lake AAF,,,KBYS,35.2822222,-116.6308333,716.3
858,USA,CA,Siskiyou County,Fort Jones|Greenview,Scott Valley,,,KA30,41.55777778,-122.8549444,831.5
859,USA,CA,Monterey County,Fort Ord|Blanco,Fritzsche AAF,,,KOAR,36.681522,-121.761653,41.5
860,USA,CA,Humboldt County,Fortuna|Alton,Rohnerville AP,,,KFOT,40.553944,-124.132667,119.5
861,USA,CA,Sacramento County,Franklin|Bruceville,Franklin Field,,,KF72,38.30391667,-121.4292778,7.0
862,USA,CA,Fresno County,Fresno|Cameo,Air Terminal,,,KFAT,36.776556,-119.718833,102.1
863,USA,CA,Fresno County,Fresno|Sierra Sky Park,Sierra Sky Park,,,KE79,36.84016667,-119.8693889,97.8
864,USA,CA,Fresno County,Fresno|West Park,Chandler Downtown,,,KFCH,36.732111,-119.820333,85.0
865,USA,CA,Orange County,Fullerton|Fuller Park,Fullerton Muni AP,,,KFUL,33.872014,-117.979783,29.3
866,USA,CA,Humboldt County,Garberville,Garberville,,,KO16,40.08569444,-123.81425,167.6
867,USA,CA,Del Norte County,Gasquet|Adams Station,Ward Field,,,K0O9,41.84558333,-123.9847778,108.5
868,USA,CA,El Dorado County,Georgetown|Buffalo Hill,Georgetown,,,KE36,38.92097222,-120.8648333,799.8
869,USA,CA,San Bernardino County,Goat Mtn Live Fire Toc|Renoville,Goat Mountain Live Fire TOC,,,KQIS,35.507,-116.458,1254.0
870,USA,CA,Nevada County,Grass Valley|Forest Knolls,Nevada County Air Park,,,KGOO,39.224056,-121.002556,962.3
871,USA,CA,Tuolumne County,Groveland|Groveland-Big Oak Flat  (historical),Pine Mountain Lake,,,KE45,37.86166667,-120.1778889,893.7
872,USA,CA,Mendocino County,Gualala,Ocean Ridge,,,KE55,38.80161111,-123.5306389,286.5
873,USA,CA,Merced County,Gustine,Gustine,,,K3O1,37.26058333,-120.96425,24.1
874,USA,CA,San Mateo County,Half Moon Bay|El Granada Mobile Home Park,Half Moon Bay AP | Half Moon Bay Landing Strip,,,KHAF,37.513444,-122.501167,20.1
875,USA,CA,Kings County,Hanford|Shell,Hanford,,,KHJO,36.316722,-119.627667,72.8
876,USA,CA,Siskiyou County,Happy Camp,Happy Camp,,,K36S,41.79067944,-123.3889444,368.5
877,USA,CA,Los Angeles County,Hawthorne|Cypave,Hawthorne Muni AP,,,KHHR,33.922861,-118.335083,19.8
878,USA,CA,Trinity County,Hayfork,Hayfork,,,KF62,40.547,-123.1794444,711.1
879,USA,CA,Alameda County,Hayward|Russell City,Air Terminal,,,KHWD,37.658928,-122.121736,15.8
880,USA,CA,Riverside County,Hemet|Egan,Hemet-Ryan AP | Ryan Outlying Field,,,KHMT,33.734028,-117.022306,461.5
881,USA,CA,Lassen County,Herlong|Patton Village,Herlong,,,KH37,40.13872222,-120.1799722,1238.1
882,USA,CA,Lassen County,Herlong|Wendel,Amedee AAF,,,KAHC,40.265919,-120.150614,1222.6
883,USA,CA,San Bernardino County,Hesperia|Lugo,Hesperia,,,KL26,34.37694444,-117.3160556,1033.3
884,USA,CA,San Benito County,Hollister|Cottage Corners,Hollister Muni AP,Current identifier.,,KCVH,36.893347,-121.410275,70.1
885,USA,CA,San Benito County,Hollister|Fep (historical),Frazier Lake Airpark,,,K1C9,36.95328306,-121.4654925,46.3
886,USA,CA,Imperial County,Holtville|Date City,SAWRS,,,KL04,32.84494444,-115.2685,18.0
887,USA,CA,Humboldt County,Hoopa,Hoopa,,,KO21,41.04147222,-123.6678056,108.5
888,USA,CA,Monterey County,Hunter Ligget|Hunter-Liggett,Tusi,,,KHGT,35.993541,-121.2366625,310.0
889,USA,CA,Trinity County,Hyampom,Hyampom,,,KH47,40.62561111,-123.4685,389.2
890,USA,CA,Imperial County,Imperial,County AP,,,KIPL,32.834222,-115.57875,-16.2
891,USA,CA,San Diego County,Imperial Beach,Ream,,,KNRS,32.566156,-117.113522,7.0
892,USA,CA,Inyo County,Independence,Independence AP,,,K2O7,36.81637239,-118.2049326,1191.2
893,USA,CA,Kern County,Inyokern,Inyokern AP,,,KIYK,35.658742,-117.829533,748.9
894,USA,CA,Kern County,Inyokern|China Lake,China Lake NAF|Inyokern NAS|Harvey Field,,,KNID,35.685631,-117.691772,696.2
895,USA,CA,Amador County,Jackson|Sutter Hill,Westover Field Amador County,,,KJAQ,38.376803,-120.793906,516.0
896,USA,CA,San Diego County,Jacumba,Jacumba,,,KL78,32.61586111,-116.1653611,866.9
897,USA,CA,San Bernardino County,Joshua Tree|Sunfair,Roy Williams,,,KL80,34.15417111,-116.2522317,751.0
898,USA,CA,Kern County,Kernville|Kernville (historical),Kern Valley,,,KL05,35.72822222,-118.4197222,796.8
899,USA,CA,Monterey County,King City,Mesa Del Rey,,,KKIC,36.228556,-121.121306,114.0
900,USA,CA,Del Norte County,Klamath Glen,Andy Mc Beth,,,KS51,41.51202778,-123.9956667,12.8
901,USA,CA,Los Angeles County,La Verne,Brackett,,,KPOC,34.091667,-117.781778,308.8
902,USA,CA,Lake County,Lakeport|Finley,Lampson Field,,,K1O2,38.99061111,-122.9007222,420.6
903,USA,CA,Los Angeles County,Lancaster|Antelope Acres,Fox Field,,,KWJF,34.741056,-118.218639,716.3
904,USA,CA,Mono County,Lee Vining,Lee Vining,,,KO24,37.95777778,-119.1058056,2073.3
908,USA,CA,Boulder County,Lemoore|Marnett,(Abandoned) Willett AP (1963-65) | Lemoore AP (1948-1962) | Lemoore AAF ( -1948),FAA LID later reassigned to Longmont CO.,,KLMO,40.164389,-105.163639,1540.8
909,USA,CA,Kings County,Lemoore|Vanguard,Lemoore NAS | Reeves,,,KNLC,36.333128,-119.952161,69.5
910,USA,CA,Placer County,Lincoln|Ewing,Lincoln,,,KLHM,38.909167,-121.351333,36.9
911,USA,CA,Alameda County,Livermore|East Pleasanton,Livermore Municipal AP|Livermore Sky Ranch|Livermore NOLF|Livermore Intermediate Field,,,KLVK,37.693389,-121.820361,121.6
912,USA,CA,San Joaquin County,Lodi|Collierville,Lodi,,,K1O3,38.20247519,-121.2691942,18.0
913,USA,CA,San Joaquin County,Lodi|Henderson Village,Lodi Airpark,,,KL53,38.08408694,-121.3163369,7.6
914,USA,CA,San Joaquin County,Lodi|Henderson Village,Kingdon Airpark,,,KO20,38.09158639,-121.3593931,4.6
915,USA,CA,Santa Barbara County,Lompoc|Ellwood Estates,AP (1960- ),,,KLPC,34.665619,-120.467503,26.8
916,USA,CA,Inyo County,Lone Pine,Lone Pine AP,FAA LID later reassigned to Wise VA.,,KO26,36.58826667,-118.0520314,1130.5
917,USA,CA,Los Angeles County,Long Beach,Naa Long Beach Port Helistop,,,K42L,33.76474,-118.1995128,4.6
918,USA,CA,Los Angeles County,Long Beach|Signal Hill,Daugherty Field,,,KLGB,33.817931,-118.151892,18.3
919,USA,CA,Orange County,Los Alamitos,Los Alamitos AAF | Los Alamitos NAS,WBAN used 1960 onward.,,KSLI,33.79,-118.052,10.7
920,USA,CA,,Los Angeles,FAA Pacific Regional Office - Message Center,,,KRLA,,,
921,USA,CA,Los Angeles County,Los Angeles/van Nuys|Encino,Engine Co Nr 109,,,K61L,34.13083972,-118.4906378,419.1
922,USA,CA,Ventura County,Los Angeles|Arts Trailer Court,NWSFO,,,KLOX,34.2,-119.1333,16.0
923,USA,CA,Los Angeles County,Los Angeles|Granada Hills,Devonshire Area,,,K14L,34.25694722,-118.5314753,308.5
924,USA,CA,Los Angeles County,Los Angeles|Jefferson,USC/Downtown,,,KCQT,34.0167,-118.2833,70.1
925,USA,CA,Los Angeles County,Los Angeles|Los Angeles City Center,Parker Center,,,K45L,34.05223389,-118.241185,137.2
926,USA,CA,Los Angeles County,Los Angeles|Los Angeles City Center,City Hall,,,K59L,34.05417833,-118.2425739,109.7
927,USA,CA,Los Angeles County,Los Angeles|Old Chinatown (historical),Terminal Annex,,,K54L,34.05806722,-118.2356286,108.2
928,USA,CA,Los Angeles County,Los Angeles|Pacoima,Whiteman,,,KWHP,34.259325,-118.413433,305.7
929,USA,CA,Los Angeles County,Los Angeles|Studio City,Engine Co Nr 108,,,K60L,34.12667389,-118.4070239,343.5
930,USA,CA,Los Angeles County,Los Angeles|Van Nuys,Van Nuys County Court,,,K43L,34.18333833,-118.4475822,259.1
931,USA,CA,Los Angeles County,Los Angeles|Vineyard,Wilshire Area,,,K44L,34.04695528,-118.3425767,45.7
932,USA,CA,Los Angeles County,Los Angeles|Westchester,International AP [Mines Field],,,KLAX,33.942497,-118.40805,38.7
933,USA,CA,Merced County,Los Banos|Santa Nella Village,San Luis Reservoir,,,K0O0,37.0582775,-121.1260347,165.8
934,USA,CA,Merced County,Los Banos|Trent,Los Banos Muni AP,,,KLSN,37.063889,-120.869861,36.9
935,USA,CA,Kern County,Lost Hills,Lost Hills-kern County,,,KL84,35.62477778,-119.6861389,83.5
936,USA,CA,Madera County,Madera|Notarb,Madera Muni AP,,,KMAE,36.986508,-120.112631,77.7
937,USA,CA,Los Angeles County,Malibu|Malibu Beach,Malibu Administrative Center,,,K74L,34.03722972,-118.6881408,8.8
938,USA,CA,Mono County,Mammoth|Whitmore Hot Springs,June Lakes,,,KMMH,37.624056,-118.83875,2174.5
939,USA,CA,Mariposa County,Mariposa|Mount Bullion,Mariposa-Yosemite AP,,,KMPI,37.510861,-120.039528,687.0
940,USA,CA,Alpine County,Markleeville,Alpine County,,,KM45,38.73475,-119.7670556,1789.5
941,USA,CA,Yuba County,Marysville|Alicia,Yuba County AP,,,KMYV,39.097778,-121.569833,19.5
942,USA,CA,Yuba County,Marysville|Erle (historical),Beale AFB,,,KBAB,39.1361,-121.436586,34.1
943,USA,CA,Mendocino County,Mendocino|Little River|Fort Bragg,Little River AP/SAWRS,,,KLLR,39.262056,-123.753778,174.7
944,USA,CA,Fresno County,Mendota,William Robert Johnston Muni,,,KM90,36.75861111,-120.3713889,49.4
945,USA,CA,Merced County,Merced,Macready Field,,,KMCE,37.28475,-120.513917,47.2
946,USA,CA,Merced County,Merced|Fluhr,Castle AP [Castle AFB],,,KMER,37.380483,-120.568186,57.9
947,USA,CA,Stanislaus County,Modesto City|Riverside,Harry Sham Field [Modesto AP],,,KMOD,37.625833,-120.954417,30.2
948,USA,CA,Kern County,Mojave|Chaffee,Mojave AP,,,KMHV,35.058944,-118.150611,853.8
949,USA,CA,Siskiyou County,Montague|Horizon Hills Mobile Home Park,Montague AP & Yreka Rohrer Field,Current.,,K1O5,41.73042028,-122.5455783,770.2
950,USA,CA,Siskiyou County,Montague|Snowden,Siskiyou County AP,,,KSIY,41.781444,-122.468111,808.0
951,USA,CA,Monterey County,Monterey|Del Monte,FNMOC Monterey,USAF operating location.,,KQNM,36.59,-121.86,152.0
952,USA,CA,Monterey County,Monterey|Del Rey Oaks,Peninsula AP [Monterey AP],,,KMRY,36.586953,-121.842783,78.0
953,USA,CA,Siskiyou County,Mount Shasta,Mount Shasta,,,KMHS,41.317,-122.317,1077.5
954,USA,CA,Los Angeles County,Mount Wilson,Mount Wilson,,,KMWS,34.23333333,-118.0666667,1739.0
955,USA,CA,Santa Clara County,Mountain View|Jackson Park,Moffett Federal Airfield|Moffett Field NAS|Moffett NAS|Sunnyvale NAS,,,KNUQ,37.416142,-122.049131,11.0
956,USA,CA,Riverside County,Murrieta/temecula|Murrieta Hot Springs  (historical),French Valley,,,KF70,33.57417908,-117.1284732,411.2
957,USA,CA,Napa County,Napa|Middleton,County AP,Approximate start date.,,KAPC,38.213636,-122.280153,10.7
958,USA,CA,Napa County,Napa|Monticello (historical),Lake Berryessa,,,KE20,38.59157306,-122.25942,134.1
959,USA,CA,San Bernardino County,Needles|Parker Junction,Needles AP,,,KEED,34.766347,-114.623281,299.6
960,USA,CA,Santa Barbara County,New Cuyama,New Cuyama,,,KL88,34.93994444,-119.6855833,671.5
961,USA,CA,Los Angeles County,Newhall|Humphreys,Los Angeles County Fire Station Nr 123,,,K80L,34.38166417,-118.4145261,550.2
963,USA,CA,Los Angeles County,Norwalk,Southeast Superior Court,,,K83L,33.91362528,-118.0731214,71.6
964,USA,CA,Los Angeles County,Norwalk,Norwalk Sheriff Station,,,K84L,33.91334722,-118.0697883,30.8
965,USA,CA,Marin County,Novato|Burdell,Novato,,,KDVO,38.143575,-122.557092,1.2
966,USA,CA,Stanislaus County,Oakdale|East Oakdale,Oakdale,,,KO27,37.75633333,-120.8001944,71.9
967,USA,CA,Alameda County,Oakland|Fremont|Mattos,Oakland ARTCC/Oceanic|Oakland ODAPS,,,KZAK,37.5429,-122.016,17.0
968,USA,CA,Alameda County,Oakland|Fremont|Mattos,Oakland ARTCC,,,KZOA,37.5429,-122.016,17.0
969,USA,CA,Alameda County,Oakland|Mulford,International AP | Metropolitan Oakland International AP | Oakland AP,,,KOAK,37.72125,-122.221139,2.7
970,USA,CA,San Luis Obispo County,Oceano|Oceano Beach,Oceano County,,,KL52,35.10147222,-120.6223611,4.3
971,USA,CA,San Diego County,Oceanside|Chappo,Camp Pendleton/MCAS,,,KNFG,33.301256,-117.355167,23.5
972,USA,CA,San Diego County,Oceanside|El Camino 76 Trailer Park,Oceanside Muni AP,Given as OKH in NCEP NSD but this appears to be erroneous as it conflicts with Oak Harbor WA.,,KOKB,33.217978,-117.351508,8.5
973,USA,CA,San Diego County,Oceanside|Las Flores,Mcolf Camp Pendleton (red Beach),,,KNXF,33.28564389,-117.4564783,27.1
974,USA,CA,San Diego County,Ocotillo Wells,Ocotillo,,,KL90,33.14777778,-116.1315833,48.8
975,USA,CA,San Bernardino County,Ontario|Ballou,International AP,,,KONT,34.056,-117.601194,287.7
976,USA,CA,Glenn County,Orland|Meadowood Estates,Haigh Field,,,KO37,39.72036819,-122.1463583,66.1
977,USA,CA,Butte County,Oroville|Bidwell (historical),Lake Oroville Landing Area,,,KO06,39.56655278,-121.4677458,274.3
978,USA,CA,Butte County,Oroville|Lorraine (historical),Oroville,,,KOVE,39.487806,-121.622,59.1
979,USA,CA,Ventura County,Oxnard,AP | Ventura County AP,,,KOXR,34.200806,-119.207222,13.4
980,USA,CA,Los Angeles County,Pacoima,Barton Heliport,,,KPAI,34.25972472,-118.4134153,292.6
981,USA,CA,Riverside County,Palm Springs,Regional,,,KPSP,33.829667,-116.506694,145.1
982,USA,CA,Los Angeles County,Palmdale,Regional AP | Air Force Plant 42,,,KPMD,34.629389,-118.084553,774.8
983,USA,CA,Los Angeles County,Palmdale,Los Angeles ARTCC,,,KZLA,34.6034,-118.08334,779.0
984,USA,CA,San Bernardino County,Palmdale|El Mirage,Gray Butte Field,ADD/20120209.,,KGXA,34.56662,-117.67038,922.9
985,USA,CA,San Mateo County,Palo Alto|Runnymeade (historical),Palo Alto AP,,,KPAO,37.461111,-122.115056,1.8
986,USA,CA,San Luis Obispo County,Paso Robles|Estrella,Paso Robles Municipal AP,,,KPRB,35.672889,-120.627083,255.4
987,USA,CA,Monterey County,Paso Robles|Nacimiento,Camp Roberts,,,KSYL,35.81496639,-120.7437847,192.0
988,USA,CA,Riverside County,Perris|Ellis,Perris Valley,,,KL65,33.76463889,-117.219,430.7
989,USA,CA,Sonoma County,Petaluma|East Petaluma,Petaluma Muni,,,KO69,38.25777778,-122.6053333,27.4
990,USA,CA,El Dorado County,Placerville|Smithflat,Placerville,,,KPVF,38.724211,-120.753342,787.9
991,USA,CA,Santa Barbara County,Point Arguello,Point Arguello,,,KPGU,34.5667,-120.6667,18.0
992,USA,CA,Ventura County,Point Mugu|The Colony Mobile Home Park,Point Mugu NAWS | Point Mugu NAS | Point Mugu Naval Air Missile Test Center,,,KNTD,34.119275,-119.119586,4.0
993,USA,CA,Los Angeles County,Pomona|Spadra,Pomona Police Dept,,,K98L,34.05251056,-117.7933917,305.1
994,USA,CA,Tulare County,Porterville|Lois,AAF,,,KPTV,36.029583,-119.062722,135.0
995,USA,CA,Plumas County,Quincy,Gansner Field,,,K2O1,39.94388889,-120.9453889,1041.8
997,USA,CA,Sacramento County,Rancho Murieta,Rancho Murieta,,,KRIU,38.486778,-121.102778,43.9
998,USA,CA,Lassen County,Ravendale,Ravendale,,,KO39,40.80327778,-120.3662222,1617.3
999,USA,CA,Tehama County,Red Bluff|Rawson,Redwood Municipal AP | Bidwell AP,Listed in 1949 CAA LID.,,KRBL,40.150306,-122.252194,107.3
1000,USA,CA,Sitka City and Borough,Redding|Baranof,Benton AP | Benton FIeld,FAA LID later reassigned to Baranof AK.,,KBNF,57.08882583,-134.8331414,0.0
1001,USA,CA,Shasta County,Redding|Fairway Oaks Mobile Home Park,Municipal AP | Redding AP,,,KRDD,40.508972,-122.293389,153.6
1002,USA,CA,Shasta County,Redding|Shady Acres Trailer Park,Benton Field,,,KO85,40.57422222,-122.4074444,220.4
1003,USA,CA,San Bernardino County,Redlands|Browns (historical),Redlands Municipal AP,,,KREI,34.08525,-117.146389,479.8
1004,USA,CA,Fresno County,Reedley|Wahtoke,Reedley Muni,,,KO32,36.67102778,-119.451,117.7
1005,USA,CA,San Bernardino County,Rialto|Walnut Ridge,Rialto Muni /miro Fld/,,,KL67,34.12934361,-117.4016303,443.5
1006,USA,CA,Sacramento County,Rio Linda|Robla,Rio Linda,,,KL36,38.675,-121.4454444,14.0
1007,USA,CA,Solano County,"Rio Vista|Rio Vista, California",Rio Vista Muni,,,KO88,38.19338889,-121.7036389,6.7
1008,USA,CA,Riverside County,Riverside/rubidoux/|Rubidoux,Flabob,,,KRIR,33.988789,-117.409911,233.8
1009,USA,CA,Riverside County,Riverside|Alessandro,March AFB,,,KRIV,33.880711,-117.25945,468.2
1010,USA,CA,Riverside County,Riverside|Arlanza,Riverside Muni AP,,,KRAL,33.951889,-117.445111,249.3
1011,USA,CA,Kern County,Rosamond,Rosamond Skypark,,,KL00,34.8705,-118.2054167,736.1
1012,USA,CA,San Diego County,Rosemont,Rosemont,,,KL49,33.033,-116.917,424.0
1013,USA,CA,Trinity County,Ruth|Yellowjacket Place,Ruth,,,KT42,40.21147222,-123.2976944,847.7
1014,USA,CA,Sacramento County,Sacramento|Arcade,NWSFO,,,KSTO,38.6167,-121.3833,18.0
1015,USA,CA,Sacramento County,Sacramento|Cordova,Executive AP | Sacramento AP,,,KSAC,38.512861,-121.4933,7.0
1016,USA,CA,Yolo County,Sacramento|Kiesel,Metropolitan,,,KSMF,38.695444,-121.590778,7.9
1017,USA,CA,Sacramento County,Sacramento|Mather Field,Mather Field | Mather AFB,,,KMHR,38.555311,-121.297211,29.9
1018,USA,CA,Sacramento County,Sacramento|McClellan Park,McClellan AFB,,,KMCC,38.667639,-121.400611,23.2
